{
"type": "FeatureCollection",
"name": "detroit_non_black_owned",
"features": [
{ "type": "Feature", "properties": { "name": "Dime Store", "review_count": 1616.0, "rating": 4.5, "price": "$$", "zip_code": "48226", "is_black_owned": 0.0, "lon_copy": -83.047992408563601, "lat_copy": 42.330806063315698 }, "geometry": { "type": "Point", "coordinates": [ -83.047992408563601, 42.330806063315698 ] } },
{ "type": "Feature", "properties": { "name": "Green Dot Stables", "review_count": 1954.0, "rating": 4.0, "price": "$", "zip_code": "48216", "is_black_owned": 0.0, "lon_copy": -83.071439609787006, "lat_copy": 42.321870673479701 }, "geometry": { "type": "Point", "coordinates": [ -83.071439609787006, 42.321870673479701 ] } },
{ "type": "Feature", "properties": { "name": "Selden Standard", "review_count": 1169.0, "rating": 4.5, "price": "$$", "zip_code": "48201", "is_black_owned": 0.0, "lon_copy": -83.06499, "lat_copy": 42.34779 }, "geometry": { "type": "Point", "coordinates": [ -83.06499, 42.34779 ] } },
{ "type": "Feature", "properties": { "name": "Chartreuse", "review_count": 733.0, "rating": 4.5, "price": "$$$", "zip_code": "48202", "is_black_owned": 0.0, "lon_copy": -83.06595, "lat_copy": 42.36054 }, "geometry": { "type": "Point", "coordinates": [ -83.06595, 42.36054 ] } },
{ "type": "Feature", "properties": { "name": "Slows Bar BQ", "review_count": 2127.0, "rating": 4.0, "price": "$$", "zip_code": "48216", "is_black_owned": 0.0, "lon_copy": -83.075953359713097, "lat_copy": 42.331598697404097 }, "geometry": { "type": "Point", "coordinates": [ -83.075953359713097, 42.331598697404097 ] } },
{ "type": "Feature", "properties": { "name": "Supino Pizzeria", "review_count": 926.0, "rating": 4.5, "price": "$$", "zip_code": "48207", "is_black_owned": 0.0, "lon_copy": -83.040064828647999, "lat_copy": 42.345476174913998 }, "geometry": { "type": "Point", "coordinates": [ -83.040064828647999, 42.345476174913998 ] } },
{ "type": "Feature", "properties": { "name": "Wright & Company", "review_count": 933.0, "rating": 4.5, "price": "$$$", "zip_code": "48226", "is_black_owned": 0.0, "lon_copy": -83.04902, "lat_copy": 42.33523 }, "geometry": { "type": "Point", "coordinates": [ -83.04902, 42.33523 ] } },
{ "type": "Feature", "properties": { "name": "Mudgie's Deli & Wine Shop", "review_count": 922.0, "rating": 4.5, "price": "$$", "zip_code": "48226", "is_black_owned": 0.0, "lon_copy": -83.062061859552088, "lat_copy": 42.329122432794591 }, "geometry": { "type": "Point", "coordinates": [ -83.062061859552088, 42.329122432794591 ] } },
{ "type": "Feature", "properties": { "name": "Lafayette Coney Island", "review_count": 1003.0, "rating": 4.0, "price": "$", "zip_code": "48226", "is_black_owned": 0.0, "lon_copy": -83.048856772543544, "lat_copy": 42.331497253464995 }, "geometry": { "type": "Point", "coordinates": [ -83.048856772543544, 42.331497253464995 ] } },
{ "type": "Feature", "properties": { "name": "Grey Ghost Detroit", "review_count": 832.0, "rating": 4.0, "price": "$$$", "zip_code": "48201", "is_black_owned": 0.0, "lon_copy": -83.055517114698901, "lat_copy": 42.345170438437599 }, "geometry": { "type": "Point", "coordinates": [ -83.055517114698901, 42.345170438437599 ] } },
{ "type": "Feature", "properties": { "name": "Takoi", "review_count": 601.0, "rating": 4.5, "price": "$$", "zip_code": "48216", "is_black_owned": 0.0, "lon_copy": -83.080834356622304, "lat_copy": 42.331643236951102 }, "geometry": { "type": "Point", "coordinates": [ -83.080834356622304, 42.331643236951102 ] } },
{ "type": "Feature", "properties": { "name": "The Hudson Cafe", "review_count": 1102.0, "rating": 4.0, "price": "$$", "zip_code": "48226", "is_black_owned": 0.0, "lon_copy": -83.048497, "lat_copy": 42.333364 }, "geometry": { "type": "Point", "coordinates": [ -83.048497, 42.333364 ] } },
{ "type": "Feature", "properties": { "name": "ima", "review_count": 528.0, "rating": 4.5, "price": "$$", "zip_code": "48216", "is_black_owned": 0.0, "lon_copy": -83.073760986328097, "lat_copy": 42.331142425537102 }, "geometry": { "type": "Point", "coordinates": [ -83.073760986328097, 42.331142425537102 ] } },
{ "type": "Feature", "properties": { "name": "Standby", "review_count": 568.0, "rating": 4.5, "price": "$$", "zip_code": "48226", "is_black_owned": 0.0, "lon_copy": -83.046114063101399, "lat_copy": 42.3344844608147 }, "geometry": { "type": "Point", "coordinates": [ -83.046114063101399, 42.3344844608147 ] } },
{ "type": "Feature", "properties": { "name": "Batch Brewing Company", "review_count": 431.0, "rating": 4.5, "price": "$$", "zip_code": "48216", "is_black_owned": 0.0, "lon_copy": -83.063293947919902, "lat_copy": 42.328342998148301 }, "geometry": { "type": "Point", "coordinates": [ -83.063293947919902, 42.328342998148301 ] } },
{ "type": "Feature", "properties": { "name": "Ottava Via", "review_count": 722.0, "rating": 4.0, "price": "$$", "zip_code": "48216", "is_black_owned": 0.0, "lon_copy": -83.065696, "lat_copy": 42.331716 }, "geometry": { "type": "Point", "coordinates": [ -83.065696, 42.331716 ] } },
{ "type": "Feature", "properties": { "name": "Royale with Cheese", "review_count": 577.0, "rating": 4.0, "price": "$$", "zip_code": "48201", "is_black_owned": 0.0, "lon_copy": -83.063411861658096, "lat_copy": 42.350337903122004 }, "geometry": { "type": "Point", "coordinates": [ -83.063411861658096, 42.350337903122004 ] } },
{ "type": "Feature", "properties": { "name": "Vicente's Cuban Cuisine", "review_count": 851.0, "rating": 4.0, "price": "$$", "zip_code": "48226", "is_black_owned": 0.0, "lon_copy": -83.047077, "lat_copy": 42.33447 }, "geometry": { "type": "Point", "coordinates": [ -83.047077, 42.33447 ] } },
{ "type": "Feature", "properties": { "name": "Bakersfield", "review_count": 594.0, "rating": 4.0, "price": "$$", "zip_code": "48201", "is_black_owned": 0.0, "lon_copy": -83.05572, "lat_copy": 42.34518 }, "geometry": { "type": "Point", "coordinates": [ -83.05572, 42.34518 ] } },
{ "type": "Feature", "properties": { "name": "Pie Sci", "review_count": 269.0, "rating": 4.5, "price": "$$", "zip_code": "48208", "is_black_owned": 0.0, "lon_copy": -83.080028146505299, "lat_copy": 42.353963844856104 }, "geometry": { "type": "Point", "coordinates": [ -83.080028146505299, 42.353963844856104 ] } },
{ "type": "Feature", "properties": { "name": "Motor City Brewing Works-Canfield", "review_count": 514.0, "rating": 4.0, "price": "$$", "zip_code": "48201", "is_black_owned": 0.0, "lon_copy": -83.066016822575733, "lat_copy": 42.351759172825737 }, "geometry": { "type": "Point", "coordinates": [ -83.066016822575733, 42.351759172825737 ] } },
{ "type": "Feature", "properties": { "name": "Taqueria Mi Pueblo", "review_count": 546.0, "rating": 4.0, "price": "$", "zip_code": "48209", "is_black_owned": 0.0, "lon_copy": -83.1241897817536, "lat_copy": 42.317090963541403 }, "geometry": { "type": "Point", "coordinates": [ -83.1241897817536, 42.317090963541403 ] } },
{ "type": "Feature", "properties": { "name": "Johnny Noodle King", "review_count": 764.0, "rating": 4.0, "price": "$$", "zip_code": "48216", "is_black_owned": 0.0, "lon_copy": -83.0743694, "lat_copy": 42.3188542 }, "geometry": { "type": "Point", "coordinates": [ -83.0743694, 42.3188542 ] } },
{ "type": "Feature", "properties": { "name": "Buddy's Pizza", "review_count": 291.0, "rating": 4.5, "price": "$$", "zip_code": "48212", "is_black_owned": 0.0, "lon_copy": -83.06405, "lat_copy": 42.41897 }, "geometry": { "type": "Point", "coordinates": [ -83.06405, 42.41897 ] } },
{ "type": "Feature", "properties": { "name": "Avalon International Breads", "review_count": 334.0, "rating": 4.5, "price": "$", "zip_code": "48201", "is_black_owned": 0.0, "lon_copy": -83.064075708389296, "lat_copy": 42.350409264386698 }, "geometry": { "type": "Point", "coordinates": [ -83.064075708389296, 42.350409264386698 ] } },
{ "type": "Feature", "properties": { "name": "SavannahBlue", "review_count": 501.0, "rating": 4.0, "price": "$$", "zip_code": "48226", "is_black_owned": 0.0, "lon_copy": -83.05233, "lat_copy": 42.3341913 }, "geometry": { "type": "Point", "coordinates": [ -83.05233, 42.3341913 ] } },
{ "type": "Feature", "properties": { "name": "Mercury Burger Bar", "review_count": 761.0, "rating": 4.0, "price": "$$", "zip_code": "48216", "is_black_owned": 0.0, "lon_copy": -83.0761372076567, "lat_copy": 42.331157370281197 }, "geometry": { "type": "Point", "coordinates": [ -83.0761372076567, 42.331157370281197 ] } },
{ "type": "Feature", "properties": { "name": "Andiamo", "review_count": 628.0, "rating": 4.0, "price": "$$$", "zip_code": "48243", "is_black_owned": 0.0, "lon_copy": -83.039659, "lat_copy": 42.328235 }, "geometry": { "type": "Point", "coordinates": [ -83.039659, 42.328235 ] } },
{ "type": "Feature", "properties": { "name": "Honey Bee La Colmena", "review_count": 235.0, "rating": 4.5, "price": "$", "zip_code": "48216", "is_black_owned": 0.0, "lon_copy": -83.076507568359403, "lat_copy": 42.325637817382798 }, "geometry": { "type": "Point", "coordinates": [ -83.076507568359403, 42.325637817382798 ] } },
{ "type": "Feature", "properties": { "name": "Chili Mustard Onions", "review_count": 232.0, "rating": 4.5, "price": "$$", "zip_code": "48201", "is_black_owned": 0.0, "lon_copy": -83.052832, "lat_copy": 42.347674 }, "geometry": { "type": "Point", "coordinates": [ -83.052832, 42.347674 ] } },
{ "type": "Feature", "properties": { "name": "Giovanni's Ristorante", "review_count": 305.0, "rating": 4.5, "price": "$$$", "zip_code": "48217", "is_black_owned": 0.0, "lon_copy": -83.145912067459093, "lat_copy": 42.290322054895697 }, "geometry": { "type": "Point", "coordinates": [ -83.145912067459093, 42.290322054895697 ] } },
{ "type": "Feature", "properties": { "name": "Bobcat Bonnie's", "review_count": 596.0, "rating": 4.0, "price": "$$", "zip_code": "48216", "is_black_owned": 0.0, "lon_copy": -83.0707433, "lat_copy": 42.3315449 }, "geometry": { "type": "Point", "coordinates": [ -83.0707433, 42.3315449 ] } },
{ "type": "Feature", "properties": { "name": "SheWolf Pastificio & Bar", "review_count": 383.0, "rating": 4.0, "price": "$$$", "zip_code": "48201", "is_black_owned": 0.0, "lon_copy": -83.062697217299743, "lat_copy": 42.347953002822429 }, "geometry": { "type": "Point", "coordinates": [ -83.062697217299743, 42.347953002822429 ] } },
{ "type": "Feature", "properties": { "name": "Parc", "review_count": 739.0, "rating": 4.0, "price": "$$$", "zip_code": "48226", "is_black_owned": 0.0, "lon_copy": -83.0468584, "lat_copy": 42.3314239 }, "geometry": { "type": "Point", "coordinates": [ -83.0468584, 42.3314239 ] } },
{ "type": "Feature", "properties": { "name": "Joe Muer Seafood", "review_count": 700.0, "rating": 4.0, "price": "$$$", "zip_code": "48243", "is_black_owned": 0.0, "lon_copy": -83.040138261376995, "lat_copy": 42.3279507129647 }, "geometry": { "type": "Point", "coordinates": [ -83.040138261376995, 42.3279507129647 ] } },
{ "type": "Feature", "properties": { "name": "Roasting Plant Detroit", "review_count": 304.0, "rating": 4.5, "price": "$", "zip_code": "48226", "is_black_owned": 0.0, "lon_copy": -83.0460964, "lat_copy": 42.3311107 }, "geometry": { "type": "Point", "coordinates": [ -83.0460964, 42.3311107 ] } },
{ "type": "Feature", "properties": { "name": "Pupusería y Restaurante Salvadoreño", "review_count": 234.0, "rating": 4.5, "price": "$", "zip_code": "48210", "is_black_owned": 0.0, "lon_copy": -83.11624, "lat_copy": 42.32485 }, "geometry": { "type": "Point", "coordinates": [ -83.11624, 42.32485 ] } },
{ "type": "Feature", "properties": { "name": "The Apparatus Room", "review_count": 637.0, "rating": 4.0, "price": "$$$", "zip_code": "48226", "is_black_owned": 0.0, "lon_copy": -83.048512724869994, "lat_copy": 42.328158590995599 }, "geometry": { "type": "Point", "coordinates": [ -83.048512724869994, 42.328158590995599 ] } },
{ "type": "Feature", "properties": { "name": "Urban Ramen", "review_count": 604.0, "rating": 4.0, "price": "$$", "zip_code": "48201", "is_black_owned": 0.0, "lon_copy": -83.060804657326997, "lat_copy": 42.351869835986001 }, "geometry": { "type": "Point", "coordinates": [ -83.060804657326997, 42.351869835986001 ] } },
{ "type": "Feature", "properties": { "name": "Baobab Fare", "review_count": 115.0, "rating": 5.0, "price": "$$", "zip_code": "48202", "is_black_owned": 0.0, "lon_copy": -83.0729392, "lat_copy": 42.3700146 }, "geometry": { "type": "Point", "coordinates": [ -83.0729392, 42.3700146 ] } },
{ "type": "Feature", "properties": { "name": "Vertical Detroit", "review_count": 387.0, "rating": 4.0, "price": "$$$", "zip_code": "48226", "is_black_owned": 0.0, "lon_copy": -83.04716327054949, "lat_copy": 42.336328308655283 }, "geometry": { "type": "Point", "coordinates": [ -83.04716327054949, 42.336328308655283 ] } },
{ "type": "Feature", "properties": { "name": "Marrow", "review_count": 242.0, "rating": 4.5, "price": "$$$$", "zip_code": "48214", "is_black_owned": 0.0, "lon_copy": -82.99882, "lat_copy": 42.35852 }, "geometry": { "type": "Point", "coordinates": [ -82.99882, 42.35852 ] } },
{ "type": "Feature", "properties": { "name": "El Barzon", "review_count": 471.0, "rating": 4.0, "price": "$$", "zip_code": "48210", "is_black_owned": 0.0, "lon_copy": -83.1110703, "lat_copy": 42.330924 }, "geometry": { "type": "Point", "coordinates": [ -83.1110703, 42.330924 ] } },
{ "type": "Feature", "properties": { "name": "Cornerstone Barrel House", "review_count": 280.0, "rating": 4.5, "price": "$$", "zip_code": "48226", "is_black_owned": 0.0, "lon_copy": -83.048829420807806, "lat_copy": 42.335017771461203 }, "geometry": { "type": "Point", "coordinates": [ -83.048829420807806, 42.335017771461203 ] } },
{ "type": "Feature", "properties": { "name": "Maru Sushi & Grill Detroit", "review_count": 441.0, "rating": 4.0, "price": "$$", "zip_code": "48226", "is_black_owned": 0.0, "lon_copy": -83.04832, "lat_copy": 42.33059 }, "geometry": { "type": "Point", "coordinates": [ -83.04832, 42.33059 ] } },
{ "type": "Feature", "properties": { "name": "La Feria", "review_count": 384.0, "rating": 4.0, "price": "$$", "zip_code": "48201", "is_black_owned": 0.0, "lon_copy": -83.062759, "lat_copy": 42.350197 }, "geometry": { "type": "Point", "coordinates": [ -83.062759, 42.350197 ] } },
{ "type": "Feature", "properties": { "name": "Detroit Shipping Company", "review_count": 324.0, "rating": 4.0, "price": "$$", "zip_code": "48201", "is_black_owned": 0.0, "lon_copy": -83.061460268864408, "lat_copy": 42.344019077426488 }, "geometry": { "type": "Point", "coordinates": [ -83.061460268864408, 42.344019077426488 ] } },
{ "type": "Feature", "properties": { "name": "Jolly Pumpkin Pizzeria and Brewery- Detroit", "review_count": 464.0, "rating": 4.0, "price": "$$", "zip_code": "48201", "is_black_owned": 0.0, "lon_copy": -83.065248717196695, "lat_copy": 42.351259741682902 }, "geometry": { "type": "Point", "coordinates": [ -83.065248717196695, 42.351259741682902 ] } },
{ "type": "Feature", "properties": { "name": "Honest John's Bar & Grill", "review_count": 508.0, "rating": 4.0, "price": "$", "zip_code": "48201", "is_black_owned": 0.0, "lon_copy": -83.063941955566406, "lat_copy": 42.347965240478501 }, "geometry": { "type": "Point", "coordinates": [ -83.063941955566406, 42.347965240478501 ] } },
{ "type": "Feature", "properties": { "name": "Spread Detroit", "review_count": 121.0, "rating": 4.5, "price": null, "zip_code": "48201", "is_black_owned": 0.0, "lon_copy": -83.063815, "lat_copy": 42.350628 }, "geometry": { "type": "Point", "coordinates": [ -83.063815, 42.350628 ] } },
{ "type": "Feature", "properties": { "name": "Avalon Cafe and Bakery", "review_count": 219.0, "rating": 4.0, "price": "$$", "zip_code": "48226", "is_black_owned": 0.0, "lon_copy": -83.048011, "lat_copy": 42.332552 }, "geometry": { "type": "Point", "coordinates": [ -83.048011, 42.332552 ] } },
{ "type": "Feature", "properties": { "name": "Hygrade Deli", "review_count": 128.0, "rating": 4.5, "price": "$", "zip_code": "48216", "is_black_owned": 0.0, "lon_copy": -83.09401, "lat_copy": 42.33164 }, "geometry": { "type": "Point", "coordinates": [ -83.09401, 42.33164 ] } },
{ "type": "Feature", "properties": { "name": "PAO Detroit", "review_count": 229.0, "rating": 4.0, "price": "$$", "zip_code": "48226", "is_black_owned": 0.0, "lon_copy": -83.053074, "lat_copy": 42.33632 }, "geometry": { "type": "Point", "coordinates": [ -83.053074, 42.33632 ] } },
{ "type": "Feature", "properties": { "name": "Bangkok 96 Street Food", "review_count": 112.0, "rating": 4.5, "price": "$$", "zip_code": "48201", "is_black_owned": 0.0, "lon_copy": -83.06156, "lat_copy": 42.34422 }, "geometry": { "type": "Point", "coordinates": [ -83.06156, 42.34422 ] } },
{ "type": "Feature", "properties": { "name": "Los Galanes", "review_count": 276.0, "rating": 3.5, "price": "$$", "zip_code": "48216", "is_black_owned": 0.0, "lon_copy": -83.0844574, "lat_copy": 42.3235397 }, "geometry": { "type": "Point", "coordinates": [ -83.0844574, 42.3235397 ] } },
{ "type": "Feature", "properties": { "name": "Midtown Shangri-La", "review_count": 263.0, "rating": 3.5, "price": "$$", "zip_code": "48201", "is_black_owned": 0.0, "lon_copy": -83.0653095, "lat_copy": 42.3539857 }, "geometry": { "type": "Point", "coordinates": [ -83.0653095, 42.3539857 ] } },
{ "type": "Feature", "properties": { "name": "Saffron De Twah", "review_count": 69.0, "rating": 4.5, "price": "$$", "zip_code": "48213", "is_black_owned": 0.0, "lon_copy": -83.01584, "lat_copy": 42.37633 }, "geometry": { "type": "Point", "coordinates": [ -83.01584, 42.37633 ] } },
{ "type": "Feature", "properties": { "name": "The Block", "review_count": 259.0, "rating": 4.0, "price": "$$", "zip_code": "48201", "is_black_owned": 0.0, "lon_copy": -83.0596056, "lat_copy": 42.3497097 }, "geometry": { "type": "Point", "coordinates": [ -83.0596056, 42.3497097 ] } },
{ "type": "Feature", "properties": { "name": "Detroit Beer Company", "review_count": 445.0, "rating": 3.5, "price": "$$", "zip_code": "48226", "is_black_owned": 0.0, "lon_copy": -83.048828, "lat_copy": 42.335826 }, "geometry": { "type": "Point", "coordinates": [ -83.048828, 42.335826 ] } },
{ "type": "Feature", "properties": { "name": "Kuzzos Chicken & Waffles", "review_count": 684.0, "rating": 3.0, "price": "$$", "zip_code": "48221", "is_black_owned": 0.0, "lon_copy": -83.14193, "lat_copy": 42.434132 }, "geometry": { "type": "Point", "coordinates": [ -83.14193, 42.434132 ] } },
{ "type": "Feature", "properties": { "name": "PizzaPlex", "review_count": 81.0, "rating": 4.5, "price": "$$", "zip_code": "48209", "is_black_owned": 0.0, "lon_copy": -83.096799665259397, "lat_copy": 42.320002586908799 }, "geometry": { "type": "Point", "coordinates": [ -83.096799665259397, 42.320002586908799 ] } },
{ "type": "Feature", "properties": { "name": "BARDA Detroit", "review_count": 67.0, "rating": 4.5, "price": "$$$", "zip_code": "48208", "is_black_owned": 0.0, "lon_copy": -83.08786, "lat_copy": 42.3485 }, "geometry": { "type": "Point", "coordinates": [ -83.08786, 42.3485 ] } },
{ "type": "Feature", "properties": { "name": "La Lanterna", "review_count": 199.0, "rating": 4.0, "price": "$$", "zip_code": "48226", "is_black_owned": 0.0, "lon_copy": -83.0490294, "lat_copy": 42.3330441 }, "geometry": { "type": "Point", "coordinates": [ -83.0490294, 42.3330441 ] } },
{ "type": "Feature", "properties": { "name": "ima", "review_count": 102.0, "rating": 4.0, "price": "$$", "zip_code": "48201", "is_black_owned": 0.0, "lon_copy": -83.066316694021197, "lat_copy": 42.355822573024199 }, "geometry": { "type": "Point", "coordinates": [ -83.066316694021197, 42.355822573024199 ] } },
{ "type": "Feature", "properties": { "name": "Tommy's Detroit Bar & Grill", "review_count": 124.0, "rating": 4.5, "price": "$", "zip_code": "48226", "is_black_owned": 0.0, "lon_copy": -83.053576, "lat_copy": 42.327681 }, "geometry": { "type": "Point", "coordinates": [ -83.053576, 42.327681 ] } },
{ "type": "Feature", "properties": { "name": "Harmony Garden Cafe", "review_count": 108.0, "rating": 4.5, "price": "$", "zip_code": "48201", "is_black_owned": 0.0, "lon_copy": -83.069867, "lat_copy": 42.35263 }, "geometry": { "type": "Point", "coordinates": [ -83.069867, 42.35263 ] } },
{ "type": "Feature", "properties": { "name": "The Congregation Detroit", "review_count": 54.0, "rating": 4.5, "price": "$$", "zip_code": "48206", "is_black_owned": 0.0, "lon_copy": -83.100516, "lat_copy": 42.377392 }, "geometry": { "type": "Point", "coordinates": [ -83.100516, 42.377392 ] } },
{ "type": "Feature", "properties": { "name": "Cork & Gabel", "review_count": 140.0, "rating": 4.0, "price": "$$", "zip_code": "48216", "is_black_owned": 0.0, "lon_copy": -83.07941, "lat_copy": 42.33111 }, "geometry": { "type": "Point", "coordinates": [ -83.07941, 42.33111 ] } },
{ "type": "Feature", "properties": { "name": "Socra Tea Detroit", "review_count": 67.0, "rating": 4.5, "price": "$", "zip_code": "48201", "is_black_owned": 0.0, "lon_copy": -83.06117, "lat_copy": 42.35449 }, "geometry": { "type": "Point", "coordinates": [ -83.06117, 42.35449 ] } },
{ "type": "Feature", "properties": { "name": "El Rey de Las Arepas", "review_count": 62.0, "rating": 4.5, "price": "$", "zip_code": "48210", "is_black_owned": 0.0, "lon_copy": -83.1408182, "lat_copy": 42.3352964 }, "geometry": { "type": "Point", "coordinates": [ -83.1408182, 42.3352964 ] } },
{ "type": "Feature", "properties": { "name": "Frita Batidos", "review_count": 86.0, "rating": 4.5, "price": "$$", "zip_code": "48201", "is_black_owned": 0.0, "lon_copy": -83.05314, "lat_copy": 42.3379 }, "geometry": { "type": "Point", "coordinates": [ -83.05314, 42.3379 ] } },
{ "type": "Feature", "properties": { "name": "El Taco Veloz", "review_count": 59.0, "rating": 4.5, "price": "$", "zip_code": "48209", "is_black_owned": 0.0, "lon_copy": -83.110047, "lat_copy": 42.318917 }, "geometry": { "type": "Point", "coordinates": [ -83.110047, 42.318917 ] } },
{ "type": "Feature", "properties": { "name": "American Coney Island", "review_count": 443.0, "rating": 3.5, "price": "$", "zip_code": "48226", "is_black_owned": 0.0, "lon_copy": -83.048665878106306, "lat_copy": 42.331513433086101 }, "geometry": { "type": "Point", "coordinates": [ -83.048665878106306, 42.331513433086101 ] } },
{ "type": "Feature", "properties": { "name": "Jose's Tacos", "review_count": 142.0, "rating": 4.0, "price": "$", "zip_code": "48226", "is_black_owned": 0.0, "lon_copy": -83.04668, "lat_copy": 42.33554 }, "geometry": { "type": "Point", "coordinates": [ -83.04668, 42.33554 ] } },
{ "type": "Feature", "properties": { "name": "Cass Cafe", "review_count": 256.0, "rating": 3.5, "price": "$$", "zip_code": "48201", "is_black_owned": 0.0, "lon_copy": -83.06479, "lat_copy": 42.35354 }, "geometry": { "type": "Point", "coordinates": [ -83.06479, 42.35354 ] } },
{ "type": "Feature", "properties": { "name": "Motz’s Burgers", "review_count": 85.0, "rating": 4.5, "price": "$", "zip_code": "48209", "is_black_owned": 0.0, "lon_copy": -83.11348, "lat_copy": 42.30272 }, "geometry": { "type": "Point", "coordinates": [ -83.11348, 42.30272 ] } },
{ "type": "Feature", "properties": { "name": "Bakers Keyboard Lounge", "review_count": 222.0, "rating": 4.0, "price": "$$", "zip_code": "48221", "is_black_owned": 0.0, "lon_copy": -83.1416050001001, "lat_copy": 42.445342348711499 }, "geometry": { "type": "Point", "coordinates": [ -83.1416050001001, 42.445342348711499 ] } },
{ "type": "Feature", "properties": { "name": "Roses Fine Food and Wine", "review_count": 329.0, "rating": 3.5, "price": "$$", "zip_code": "48214", "is_black_owned": 0.0, "lon_copy": -82.977338758860796, "lat_copy": 42.364022111471698 }, "geometry": { "type": "Point", "coordinates": [ -82.977338758860796, 42.364022111471698 ] } },
{ "type": "Feature", "properties": { "name": "Original Gonella's", "review_count": 88.0, "rating": 4.5, "price": "$", "zip_code": "48217", "is_black_owned": 0.0, "lon_copy": -83.1454439, "lat_copy": 42.2900737 }, "geometry": { "type": "Point", "coordinates": [ -83.1454439, 42.2900737 ] } },
{ "type": "Feature", "properties": { "name": "The Red Hook", "review_count": 82.0, "rating": 4.5, "price": "$", "zip_code": "48214", "is_black_owned": 0.0, "lon_copy": -82.9970585, "lat_copy": 42.3552156 }, "geometry": { "type": "Point", "coordinates": [ -82.9970585, 42.3552156 ] } },
{ "type": "Feature", "properties": { "name": "Woodbridge Pub", "review_count": 239.0, "rating": 3.5, "price": "$$", "zip_code": "48218", "is_black_owned": 0.0, "lon_copy": -83.080123901367202, "lat_copy": 42.353992462158203 }, "geometry": { "type": "Point", "coordinates": [ -83.080123901367202, 42.353992462158203 ] } },
{ "type": "Feature", "properties": { "name": "La Noria Bistro", "review_count": 73.0, "rating": 4.5, "price": "$$", "zip_code": "48210", "is_black_owned": 0.0, "lon_copy": -83.11076, "lat_copy": 42.33104 }, "geometry": { "type": "Point", "coordinates": [ -83.11076, 42.33104 ] } },
{ "type": "Feature", "properties": { "name": "Mike's Famous Ham Place", "review_count": 64.0, "rating": 4.5, "price": "$", "zip_code": "48216", "is_black_owned": 0.0, "lon_copy": -83.094375610351605, "lat_copy": 42.331626892089801 }, "geometry": { "type": "Point", "coordinates": [ -83.094375610351605, 42.331626892089801 ] } },
{ "type": "Feature", "properties": { "name": "Red Dunn Kitchen", "review_count": 179.0, "rating": 4.0, "price": "$$", "zip_code": "48216", "is_black_owned": 0.0, "lon_copy": -83.065040343197012, "lat_copy": 42.327004745177675 }, "geometry": { "type": "Point", "coordinates": [ -83.065040343197012, 42.327004745177675 ] } },
{ "type": "Feature", "properties": { "name": "Taystee's Burgers", "review_count": 412.0, "rating": 4.5, "price": "$$", "zip_code": "48126", "is_black_owned": 0.0, "lon_copy": -83.161949037625106, "lat_copy": 42.329381944336831 }, "geometry": { "type": "Point", "coordinates": [ -83.161949037625106, 42.329381944336831 ] } },
{ "type": "Feature", "properties": { "name": "Bash Original Izakaya", "review_count": 67.0, "rating": 4.5, "price": null, "zip_code": "48208", "is_black_owned": 0.0, "lon_copy": -83.079469, "lat_copy": 42.352967 }, "geometry": { "type": "Point", "coordinates": [ -83.079469, 42.352967 ] } },
{ "type": "Feature", "properties": { "name": "Telway Hamburgers", "review_count": 107.0, "rating": 4.0, "price": "$", "zip_code": "48210", "is_black_owned": 0.0, "lon_copy": -83.12787, "lat_copy": 42.33139 }, "geometry": { "type": "Point", "coordinates": [ -83.12787, 42.33139 ] } },
{ "type": "Feature", "properties": { "name": "Little Caesars Arena", "review_count": 265.0, "rating": 3.5, "price": "$$$$", "zip_code": "48201", "is_black_owned": 0.0, "lon_copy": -83.054839, "lat_copy": 42.340596 }, "geometry": { "type": "Point", "coordinates": [ -83.054839, 42.340596 ] } },
{ "type": "Feature", "properties": { "name": "Grandma Bob's", "review_count": 77.0, "rating": 4.5, "price": "$$", "zip_code": "48216", "is_black_owned": 0.0, "lon_copy": -83.07584, "lat_copy": 42.33113 }, "geometry": { "type": "Point", "coordinates": [ -83.07584, 42.33113 ] } },
{ "type": "Feature", "properties": { "name": "Evie's Tamales", "review_count": 138.0, "rating": 4.0, "price": "$", "zip_code": "48216", "is_black_owned": 0.0, "lon_copy": -83.08574, "lat_copy": 42.3231692 }, "geometry": { "type": "Point", "coordinates": [ -83.08574, 42.3231692 ] } },
{ "type": "Feature", "properties": { "name": "McShane's Irish Pub- Downtown Detroit", "review_count": 154.0, "rating": 4.0, "price": "$$", "zip_code": "48216", "is_black_owned": 0.0, "lon_copy": -83.06667, "lat_copy": 42.33175 }, "geometry": { "type": "Point", "coordinates": [ -83.06667, 42.33175 ] } },
{ "type": "Feature", "properties": { "name": "City Wings", "review_count": 113.0, "rating": 4.0, "price": "$", "zip_code": "48202", "is_black_owned": 0.0, "lon_copy": -83.0804604, "lat_copy": 42.3673375 }, "geometry": { "type": "Point", "coordinates": [ -83.0804604, 42.3673375 ] } },
{ "type": "Feature", "properties": { "name": "Mink", "review_count": 36.0, "rating": 5.0, "price": null, "zip_code": "48216", "is_black_owned": 0.0, "lon_copy": -83.065869, "lat_copy": 42.329556 }, "geometry": { "type": "Point", "coordinates": [ -83.065869, 42.329556 ] } },
{ "type": "Feature", "properties": { "name": "Al Chabab Restaurant", "review_count": 84.0, "rating": 4.5, "price": "$", "zip_code": "48126", "is_black_owned": 0.0, "lon_copy": -83.170433044433594, "lat_copy": 42.344192504882798 }, "geometry": { "type": "Point", "coordinates": [ -83.170433044433594, 42.344192504882798 ] } },
{ "type": "Feature", "properties": { "name": "The Kitchen by Cooking with Que", "review_count": 19.0, "rating": 4.5, "price": null, "zip_code": "48202", "is_black_owned": 0.0, "lon_copy": -83.073091953992801, "lat_copy": 42.369463786694801 }, "geometry": { "type": "Point", "coordinates": [ -83.073091953992801, 42.369463786694801 ] } },
{ "type": "Feature", "properties": { "name": "California Burgerz", "review_count": 120.0, "rating": 4.0, "price": "$", "zip_code": "48212", "is_black_owned": 0.0, "lon_copy": -83.0559665, "lat_copy": 42.4070759 }, "geometry": { "type": "Point", "coordinates": [ -83.0559665, 42.4070759 ] } },
{ "type": "Feature", "properties": { "name": "El Nacimiento", "review_count": 81.0, "rating": 3.5, "price": "$", "zip_code": "48209", "is_black_owned": 0.0, "lon_copy": -83.12233, "lat_copy": 42.31362 }, "geometry": { "type": "Point", "coordinates": [ -83.12233, 42.31362 ] } },
{ "type": "Feature", "properties": { "name": "Bert's Marketplace", "review_count": 200.0, "rating": 3.0, "price": "$$", "zip_code": "48207", "is_black_owned": 0.0, "lon_copy": -83.0412795, "lat_copy": 42.3473453 }, "geometry": { "type": "Point", "coordinates": [ -83.0412795, 42.3473453 ] } },
{ "type": "Feature", "properties": { "name": "Lovers Only", "review_count": 133.0, "rating": 3.0, "price": "$", "zip_code": "48226", "is_black_owned": 0.0, "lon_copy": -83.049653, "lat_copy": 42.333831 }, "geometry": { "type": "Point", "coordinates": [ -83.049653, 42.333831 ] } },
{ "type": "Feature", "properties": { "name": "Bucharest Grill", "review_count": 141.0, "rating": 3.0, "price": "$", "zip_code": "48202", "is_black_owned": 0.0, "lon_copy": -83.06847, "lat_copy": 42.36689 }, "geometry": { "type": "Point", "coordinates": [ -83.06847, 42.36689 ] } },
{ "type": "Feature", "properties": { "name": "The Ghost Bar", "review_count": 42.0, "rating": 4.0, "price": "$$", "zip_code": "48201", "is_black_owned": 0.0, "lon_copy": -83.062149047851605, "lat_copy": 42.352752685546903 }, "geometry": { "type": "Point", "coordinates": [ -83.062149047851605, 42.352752685546903 ] } },
{ "type": "Feature", "properties": { "name": "Toast", "review_count": 661.0, "rating": 4.0, "price": "$$", "zip_code": "48220", "is_black_owned": 0.0, "lon_copy": -83.136531, "lat_copy": 42.464088 }, "geometry": { "type": "Point", "coordinates": [ -83.136531, 42.464088 ] } },
{ "type": "Feature", "properties": { "name": "Go! Sy Thai", "review_count": 91.0, "rating": 3.5, "price": "$$", "zip_code": "48226", "is_black_owned": 0.0, "lon_copy": -83.0490338, "lat_copy": 42.3330503 }, "geometry": { "type": "Point", "coordinates": [ -83.0490338, 42.3330503 ] } },
{ "type": "Feature", "properties": { "name": "D.PRIME Steakhouse", "review_count": 35.0, "rating": 4.5, "price": null, "zip_code": "48226", "is_black_owned": 0.0, "lon_copy": -83.0596658, "lat_copy": 42.332190768987537 }, "geometry": { "type": "Point", "coordinates": [ -83.0596658, 42.332190768987537 ] } },
{ "type": "Feature", "properties": { "name": "Fat Salmon Sushi", "review_count": 88.0, "rating": 4.0, "price": "$$", "zip_code": "48212", "is_black_owned": 0.0, "lon_copy": -83.060975, "lat_copy": 42.400847 }, "geometry": { "type": "Point", "coordinates": [ -83.060975, 42.400847 ] } },
{ "type": "Feature", "properties": { "name": "M Cantina", "review_count": 371.0, "rating": 4.0, "price": "$$", "zip_code": "48126", "is_black_owned": 0.0, "lon_copy": -83.17272, "lat_copy": 42.32337 }, "geometry": { "type": "Point", "coordinates": [ -83.17272, 42.32337 ] } },
{ "type": "Feature", "properties": { "name": "New Yasmeen Bakery", "review_count": 166.0, "rating": 4.0, "price": "$", "zip_code": "48126", "is_black_owned": 0.0, "lon_copy": -83.18082, "lat_copy": 42.34419 }, "geometry": { "type": "Point", "coordinates": [ -83.18082, 42.34419 ] } },
{ "type": "Feature", "properties": { "name": "Jose's Tacos", "review_count": 23.0, "rating": 4.5, "price": null, "zip_code": "48207", "is_black_owned": 0.0, "lon_copy": -83.03922, "lat_copy": 42.34662 }, "geometry": { "type": "Point", "coordinates": [ -83.03922, 42.34662 ] } },
{ "type": "Feature", "properties": { "name": "Jamaica Jamaica Restaurant & Bakery", "review_count": 59.0, "rating": 4.0, "price": "$", "zip_code": "48235", "is_black_owned": 0.0, "lon_copy": -83.215871838784508, "lat_copy": 42.43026709686508 }, "geometry": { "type": "Point", "coordinates": [ -83.215871838784508, 42.43026709686508 ] } },
{ "type": "Feature", "properties": { "name": "Alcamo's Market", "review_count": 140.0, "rating": 4.5, "price": "$", "zip_code": "48126", "is_black_owned": 0.0, "lon_copy": -83.17617, "lat_copy": 42.32049 }, "geometry": { "type": "Point", "coordinates": [ -83.17617, 42.32049 ] } },
{ "type": "Feature", "properties": { "name": "Tai Fai Restaurant", "review_count": 441.0, "rating": 4.0, "price": "$", "zip_code": "48237", "is_black_owned": 0.0, "lon_copy": -83.15765, "lat_copy": 42.45988 }, "geometry": { "type": "Point", "coordinates": [ -83.15765, 42.45988 ] } },
{ "type": "Feature", "properties": { "name": "Bea's Detroit", "review_count": 25.0, "rating": 4.5, "price": null, "zip_code": "48207", "is_black_owned": 0.0, "lon_copy": -83.037961, "lat_copy": 42.346908 }, "geometry": { "type": "Point", "coordinates": [ -83.037961, 42.346908 ] } },
{ "type": "Feature", "properties": { "name": "Sullaf Restaurant", "review_count": 18.0, "rating": 4.5, "price": "$", "zip_code": "48203", "is_black_owned": 0.0, "lon_copy": -83.1115599, "lat_copy": 42.4323149 }, "geometry": { "type": "Point", "coordinates": [ -83.1115599, 42.4323149 ] } },
{ "type": "Feature", "properties": { "name": "Tuhama's", "review_count": 106.0, "rating": 4.5, "price": "$", "zip_code": "48126", "is_black_owned": 0.0, "lon_copy": -83.16474, "lat_copy": 42.34417 }, "geometry": { "type": "Point", "coordinates": [ -83.16474, 42.34417 ] } },
{ "type": "Feature", "properties": { "name": "Delite Cafe & Deli", "review_count": 55.0, "rating": 4.5, "price": "$", "zip_code": "48212", "is_black_owned": 0.0, "lon_copy": -83.057785904350297, "lat_copy": 42.400715778488198 }, "geometry": { "type": "Point", "coordinates": [ -83.057785904350297, 42.400715778488198 ] } },
{ "type": "Feature", "properties": { "name": "Buddy's Pizza - Downtown", "review_count": 101.0, "rating": 4.0, "price": "$$", "zip_code": "48226", "is_black_owned": 0.0, "lon_copy": -83.049536851851897, "lat_copy": 42.336198978532103 }, "geometry": { "type": "Point", "coordinates": [ -83.049536851851897, 42.336198978532103 ] } },
{ "type": "Feature", "properties": { "name": "Frenchy's Poutinery", "review_count": 105.0, "rating": 4.5, "price": "$", "zip_code": "N9A 4J1", "is_black_owned": 0.0, "lon_copy": -83.0386242, "lat_copy": 42.3165791 }, "geometry": { "type": "Point", "coordinates": [ -83.0386242, 42.3165791 ] } },
{ "type": "Feature", "properties": { "name": "Lou's Deli", "review_count": 66.0, "rating": 3.5, "price": "$$", "zip_code": "48221", "is_black_owned": 0.0, "lon_copy": -83.1528968, "lat_copy": 42.4172164 }, "geometry": { "type": "Point", "coordinates": [ -83.1528968, 42.4172164 ] } },
{ "type": "Feature", "properties": { "name": "Camino Real Mexican Grill", "review_count": 39.0, "rating": 4.0, "price": "$", "zip_code": "48209", "is_black_owned": 0.0, "lon_copy": -83.118122, "lat_copy": 42.304198 }, "geometry": { "type": "Point", "coordinates": [ -83.118122, 42.304198 ] } },
{ "type": "Feature", "properties": { "name": "Otus Supply", "review_count": 479.0, "rating": 4.0, "price": "$$", "zip_code": "48220", "is_black_owned": 0.0, "lon_copy": -83.129926, "lat_copy": 42.461045 }, "geometry": { "type": "Point", "coordinates": [ -83.129926, 42.461045 ] } },
{ "type": "Feature", "properties": { "name": "Vicki's Bar-B-Q", "review_count": 51.0, "rating": 4.0, "price": "$$", "zip_code": "48208", "is_black_owned": 0.0, "lon_copy": -83.10487, "lat_copy": 42.34454 }, "geometry": { "type": "Point", "coordinates": [ -83.10487, 42.34454 ] } },
{ "type": "Feature", "properties": { "name": "Bookies Bar & Grille", "review_count": 138.0, "rating": 3.0, "price": "$$", "zip_code": "48201", "is_black_owned": 0.0, "lon_copy": -83.05552, "lat_copy": 42.33687 }, "geometry": { "type": "Point", "coordinates": [ -83.05552, 42.33687 ] } },
{ "type": "Feature", "properties": { "name": "Saucy Brew Works - Detroit", "review_count": 40.0, "rating": 4.0, "price": null, "zip_code": "48201", "is_black_owned": 0.0, "lon_copy": -83.052433732727138, "lat_copy": 42.343446963612109 }, "geometry": { "type": "Point", "coordinates": [ -83.052433732727138, 42.343446963612109 ] } },
{ "type": "Feature", "properties": { "name": "Penny Red's", "review_count": 82.0, "rating": 3.5, "price": "$$", "zip_code": "48226", "is_black_owned": 0.0, "lon_copy": -83.0482813, "lat_copy": 42.3348666 }, "geometry": { "type": "Point", "coordinates": [ -83.0482813, 42.3348666 ] } },
{ "type": "Feature", "properties": { "name": "Drought", "review_count": 25.0, "rating": 4.5, "price": "$$", "zip_code": "48226", "is_black_owned": 0.0, "lon_copy": -83.04791, "lat_copy": 42.3308 }, "geometry": { "type": "Point", "coordinates": [ -83.04791, 42.3308 ] } },
{ "type": "Feature", "properties": { "name": "Remas", "review_count": 55.0, "rating": 4.5, "price": "$$", "zip_code": "48212", "is_black_owned": 0.0, "lon_copy": -83.06054, "lat_copy": 42.40147 }, "geometry": { "type": "Point", "coordinates": [ -83.06054, 42.40147 ] } },
{ "type": "Feature", "properties": { "name": "Mocha Bistro", "review_count": 171.0, "rating": 4.5, "price": "$", "zip_code": "48126", "is_black_owned": 0.0, "lon_copy": -83.18361, "lat_copy": 42.3202 }, "geometry": { "type": "Point", "coordinates": [ -83.18361, 42.3202 ] } },
{ "type": "Feature", "properties": { "name": "Mac Shack", "review_count": 91.0, "rating": 4.0, "price": "$", "zip_code": "48071", "is_black_owned": 0.0, "lon_copy": -83.042492233837905, "lat_copy": 42.348080774556401 }, "geometry": { "type": "Point", "coordinates": [ -83.042492233837905, 42.348080774556401 ] } },
{ "type": "Feature", "properties": { "name": "Louisiana Creole Gumbo", "review_count": 90.0, "rating": 3.5, "price": "$", "zip_code": "48207", "is_black_owned": 0.0, "lon_copy": -83.0345564, "lat_copy": 42.3491823 }, "geometry": { "type": "Point", "coordinates": [ -83.0345564, 42.3491823 ] } },
{ "type": "Feature", "properties": { "name": "TAP Sports Bar", "review_count": 208.0, "rating": 2.5, "price": "$$", "zip_code": "48226", "is_black_owned": 0.0, "lon_copy": -83.059043884277401, "lat_copy": 42.333581621632199 }, "geometry": { "type": "Point", "coordinates": [ -83.059043884277401, 42.333581621632199 ] } },
{ "type": "Feature", "properties": { "name": "Mr. Corned Beef", "review_count": 29.0, "rating": 4.0, "price": null, "zip_code": "48235", "is_black_owned": 0.0, "lon_copy": -83.21859, "lat_copy": 42.429768 }, "geometry": { "type": "Point", "coordinates": [ -83.21859, 42.429768 ] } },
{ "type": "Feature", "properties": { "name": "Frank's Deli & Grill", "review_count": 41.0, "rating": 4.0, "price": "$$", "zip_code": "48207", "is_black_owned": 0.0, "lon_copy": -83.043525, "lat_copy": 42.350627 }, "geometry": { "type": "Point", "coordinates": [ -83.043525, 42.350627 ] } },
{ "type": "Feature", "properties": { "name": "Food Exchange", "review_count": 39.0, "rating": 4.0, "price": "$$", "zip_code": "48213", "is_black_owned": 0.0, "lon_copy": -83.0168, "lat_copy": 42.39004 }, "geometry": { "type": "Point", "coordinates": [ -83.0168, 42.39004 ] } },
{ "type": "Feature", "properties": { "name": "Rincon Tropical", "review_count": 59.0, "rating": 3.5, "price": "$$", "zip_code": "48210", "is_black_owned": 0.0, "lon_copy": -83.1236164, "lat_copy": 42.3311463 }, "geometry": { "type": "Point", "coordinates": [ -83.1236164, 42.3311463 ] } },
{ "type": "Feature", "properties": { "name": "EastEats", "review_count": 44.0, "rating": 4.0, "price": null, "zip_code": "48215", "is_black_owned": 0.0, "lon_copy": -82.957271, "lat_copy": 42.369452 }, "geometry": { "type": "Point", "coordinates": [ -82.957271, 42.369452 ] } },
{ "type": "Feature", "properties": { "name": "Christine's Cuisine", "review_count": 348.0, "rating": 4.0, "price": "$$", "zip_code": "48220", "is_black_owned": 0.0, "lon_copy": -83.124027, "lat_copy": 42.461314 }, "geometry": { "type": "Point", "coordinates": [ -83.124027, 42.461314 ] } },
{ "type": "Feature", "properties": { "name": "Promenade Artisan Foods", "review_count": 8.0, "rating": 5.0, "price": null, "zip_code": "48202", "is_black_owned": 0.0, "lon_copy": -83.077566691699587, "lat_copy": 42.369891542708494 }, "geometry": { "type": "Point", "coordinates": [ -83.077566691699587, 42.369891542708494 ] } },
{ "type": "Feature", "properties": { "name": "Rafic's Falafel", "review_count": 98.0, "rating": 4.0, "price": "$", "zip_code": "48126", "is_black_owned": 0.0, "lon_copy": -83.17692, "lat_copy": 42.34133 }, "geometry": { "type": "Point", "coordinates": [ -83.17692, 42.34133 ] } },
{ "type": "Feature", "properties": { "name": "Supino Pizzeria", "review_count": 19.0, "rating": 4.0, "price": null, "zip_code": "48202", "is_black_owned": 0.0, "lon_copy": -83.0728591, "lat_copy": 42.3693032 }, "geometry": { "type": "Point", "coordinates": [ -83.0728591, 42.3693032 ] } },
{ "type": "Feature", "properties": { "name": "Tropical Hut Philippine Cuisine", "review_count": 30.0, "rating": 4.5, "price": "$", "zip_code": "N9A", "is_black_owned": 0.0, "lon_copy": -83.0348813, "lat_copy": 42.314718 }, "geometry": { "type": "Point", "coordinates": [ -83.0348813, 42.314718 ] } },
{ "type": "Feature", "properties": { "name": "On a Roll Sushi & Sliders", "review_count": 34.0, "rating": 4.5, "price": "$$", "zip_code": "N9A 1G5", "is_black_owned": 0.0, "lon_copy": -83.038696, "lat_copy": 42.319021 }, "geometry": { "type": "Point", "coordinates": [ -83.038696, 42.319021 ] } },
{ "type": "Feature", "properties": { "name": "Uncle Rays Potato Chips", "review_count": 15.0, "rating": 4.5, "price": "$", "zip_code": "48238", "is_black_owned": 0.0, "lon_copy": -83.1634216, "lat_copy": 42.3922691 }, "geometry": { "type": "Point", "coordinates": [ -83.1634216, 42.3922691 ] } },
{ "type": "Feature", "properties": { "name": "Fork in Nigeria", "review_count": 23.0, "rating": 4.0, "price": null, "zip_code": "48221", "is_black_owned": 0.0, "lon_copy": -83.141401825419109, "lat_copy": 42.43336842917671 }, "geometry": { "type": "Point", "coordinates": [ -83.141401825419109, 42.43336842917671 ] } },
{ "type": "Feature", "properties": { "name": "U of D Coney Island", "review_count": 16.0, "rating": 4.0, "price": "$", "zip_code": "48221", "is_black_owned": 0.0, "lon_copy": -83.14018, "lat_copy": 42.41036 }, "geometry": { "type": "Point", "coordinates": [ -83.14018, 42.41036 ] } },
{ "type": "Feature", "properties": { "name": "The Manchester", "review_count": 60.0, "rating": 4.0, "price": "$$", "zip_code": "N9A 1B7", "is_black_owned": 0.0, "lon_copy": -83.03684, "lat_copy": 42.31479 }, "geometry": { "type": "Point", "coordinates": [ -83.03684, 42.31479 ] } },
{ "type": "Feature", "properties": { "name": "The Twisted Apron", "review_count": 108.0, "rating": 4.0, "price": "$$", "zip_code": "N8Y 1E5", "is_black_owned": 0.0, "lon_copy": -83.013436, "lat_copy": 42.3224491 }, "geometry": { "type": "Point", "coordinates": [ -83.013436, 42.3224491 ] } },
{ "type": "Feature", "properties": { "name": "Top China One", "review_count": 35.0, "rating": 3.5, "price": "$", "zip_code": "48201", "is_black_owned": 0.0, "lon_copy": -83.0563595, "lat_copy": 42.3448356 }, "geometry": { "type": "Point", "coordinates": [ -83.0563595, 42.3448356 ] } },
{ "type": "Feature", "properties": { "name": "Golden Chicken", "review_count": 46.0, "rating": 4.0, "price": "$", "zip_code": "48126", "is_black_owned": 0.0, "lon_copy": -83.17261, "lat_copy": 42.34437 }, "geometry": { "type": "Point", "coordinates": [ -83.17261, 42.34437 ] } },
{ "type": "Feature", "properties": { "name": "Rock City  Eats & Sweets", "review_count": 13.0, "rating": 4.5, "price": null, "zip_code": "48213", "is_black_owned": 0.0, "lon_copy": -83.006227, "lat_copy": 42.393668 }, "geometry": { "type": "Point", "coordinates": [ -83.006227, 42.393668 ] } },
{ "type": "Feature", "properties": { "name": "44 Burrito", "review_count": 50.0, "rating": 3.5, "price": "$", "zip_code": "48235", "is_black_owned": 0.0, "lon_copy": -83.185056666702081, "lat_copy": 42.44498953001164 }, "geometry": { "type": "Point", "coordinates": [ -83.185056666702081, 42.44498953001164 ] } },
{ "type": "Feature", "properties": { "name": "BabyBacks Open Pit", "review_count": 23.0, "rating": 4.0, "price": "$", "zip_code": "48221", "is_black_owned": 0.0, "lon_copy": -83.1439562, "lat_copy": 42.4316903 }, "geometry": { "type": "Point", "coordinates": [ -83.1439562, 42.4316903 ] } },
{ "type": "Feature", "properties": { "name": "ZamZam Restaurant", "review_count": 51.0, "rating": 4.0, "price": "$", "zip_code": "48212", "is_black_owned": 0.0, "lon_copy": -83.0553467, "lat_copy": 42.4061458 }, "geometry": { "type": "Point", "coordinates": [ -83.0553467, 42.4061458 ] } },
{ "type": "Feature", "properties": { "name": "MAZAAR - Downtown", "review_count": 75.0, "rating": 4.0, "price": "$$", "zip_code": "N9A 1A6", "is_black_owned": 0.0, "lon_copy": -83.0382821, "lat_copy": 42.3166529 }, "geometry": { "type": "Point", "coordinates": [ -83.0382821, 42.3166529 ] } },
{ "type": "Feature", "properties": { "name": "La Shish", "review_count": 162.0, "rating": 3.5, "price": "$$", "zip_code": "48126", "is_black_owned": 0.0, "lon_copy": -83.16917, "lat_copy": 42.32429 }, "geometry": { "type": "Point", "coordinates": [ -83.16917, 42.32429 ] } },
{ "type": "Feature", "properties": { "name": "Noah's Deli", "review_count": 71.0, "rating": 4.0, "price": "$", "zip_code": "48126", "is_black_owned": 0.0, "lon_copy": -83.18401, "lat_copy": 42.3200999 }, "geometry": { "type": "Point", "coordinates": [ -83.18401, 42.3200999 ] } },
{ "type": "Feature", "properties": { "name": "Taloola Cafe", "review_count": 44.0, "rating": 4.5, "price": "$$", "zip_code": "N8Y 2L4", "is_black_owned": 0.0, "lon_copy": -83.012869230828798, "lat_copy": 42.324711877327999 }, "geometry": { "type": "Point", "coordinates": [ -83.012869230828798, 42.324711877327999 ] } },
{ "type": "Feature", "properties": { "name": "Olympic Grill", "review_count": 29.0, "rating": 3.5, "price": "$", "zip_code": "48201", "is_black_owned": 0.0, "lon_copy": -83.0656316, "lat_copy": 42.3561385 }, "geometry": { "type": "Point", "coordinates": [ -83.0656316, 42.3561385 ] } },
{ "type": "Feature", "properties": { "name": "Grandys Coney Island Restaurant", "review_count": 24.0, "rating": 3.5, "price": "$", "zip_code": "48211", "is_black_owned": 0.0, "lon_copy": -83.068794250488295, "lat_copy": 42.385784149169901 }, "geometry": { "type": "Point", "coordinates": [ -83.068794250488295, 42.385784149169901 ] } },
{ "type": "Feature", "properties": { "name": "Legends Grill", "review_count": 26.0, "rating": 4.0, "price": "$$", "zip_code": "48214", "is_black_owned": 0.0, "lon_copy": -82.972320556640597, "lat_copy": 42.3664360046387 }, "geometry": { "type": "Point", "coordinates": [ -82.972320556640597, 42.3664360046387 ] } },
{ "type": "Feature", "properties": { "name": "Paul's Pizzeria", "review_count": 16.0, "rating": 4.0, "price": "$", "zip_code": "48209", "is_black_owned": 0.0, "lon_copy": -83.1235, "lat_copy": 42.31264 }, "geometry": { "type": "Point", "coordinates": [ -83.1235, 42.31264 ] } },
{ "type": "Feature", "properties": { "name": "Arbeel Kabab", "review_count": 53.0, "rating": 4.0, "price": "$", "zip_code": "48126", "is_black_owned": 0.0, "lon_copy": -83.176728151738601, "lat_copy": 42.332962245547101 }, "geometry": { "type": "Point", "coordinates": [ -83.176728151738601, 42.332962245547101 ] } },
{ "type": "Feature", "properties": { "name": "Bubi's Awesome Eats", "review_count": 77.0, "rating": 3.5, "price": "$$", "zip_code": "N9A 5R5", "is_black_owned": 0.0, "lon_copy": -83.0463721, "lat_copy": 42.3158582 }, "geometry": { "type": "Point", "coordinates": [ -83.0463721, 42.3158582 ] } },
{ "type": "Feature", "properties": { "name": "People's Pierogi Collective", "review_count": 16.0, "rating": 4.0, "price": "$$", "zip_code": "48207", "is_black_owned": 0.0, "lon_copy": -83.04107, "lat_copy": 42.34887 }, "geometry": { "type": "Point", "coordinates": [ -83.04107, 42.34887 ] } },
{ "type": "Feature", "properties": { "name": "The Motown Bistro", "review_count": 104.0, "rating": 2.5, "price": "$$$", "zip_code": "48207", "is_black_owned": 0.0, "lon_copy": -83.041433, "lat_copy": 42.347426 }, "geometry": { "type": "Point", "coordinates": [ -83.041433, 42.347426 ] } },
{ "type": "Feature", "properties": { "name": "Assaggi Bistro", "review_count": 132.0, "rating": 4.0, "price": "$$$", "zip_code": "48220", "is_black_owned": 0.0, "lon_copy": -83.1389499, "lat_copy": 42.4606449 }, "geometry": { "type": "Point", "coordinates": [ -83.1389499, 42.4606449 ] } },
{ "type": "Feature", "properties": { "name": "Red Robin Gourmet Burgers and Brews", "review_count": 55.0, "rating": 3.0, "price": "$$", "zip_code": "48228", "is_black_owned": 0.0, "lon_copy": -83.222448, "lat_copy": 42.329312 }, "geometry": { "type": "Point", "coordinates": [ -83.222448, 42.329312 ] } },
{ "type": "Feature", "properties": { "name": "The Emory", "review_count": 399.0, "rating": 3.0, "price": "$$", "zip_code": "48220", "is_black_owned": 0.0, "lon_copy": -83.133499, "lat_copy": 42.459882 }, "geometry": { "type": "Point", "coordinates": [ -83.133499, 42.459882 ] } },
{ "type": "Feature", "properties": { "name": "Asian Corned Beef", "review_count": 42.0, "rating": 3.5, "price": "$", "zip_code": "48235", "is_black_owned": 0.0, "lon_copy": -83.192956, "lat_copy": 42.430958 }, "geometry": { "type": "Point", "coordinates": [ -83.192956, 42.430958 ] } },
{ "type": "Feature", "properties": { "name": "MotorCity Casino Buffet", "review_count": 35.0, "rating": 3.5, "price": "$$", "zip_code": "48201", "is_black_owned": 0.0, "lon_copy": -83.068496, "lat_copy": 42.339051 }, "geometry": { "type": "Point", "coordinates": [ -83.068496, 42.339051 ] } },
{ "type": "Feature", "properties": { "name": "Fresh Fish House", "review_count": 26.0, "rating": 3.5, "price": "$$", "zip_code": "48221", "is_black_owned": 0.0, "lon_copy": -83.162294299388293, "lat_copy": 42.445492540691298 }, "geometry": { "type": "Point", "coordinates": [ -83.162294299388293, 42.445492540691298 ] } },
{ "type": "Feature", "properties": { "name": "Mike's Kabob Grille", "review_count": 50.0, "rating": 3.0, "price": "$$", "zip_code": "48226", "is_black_owned": 0.0, "lon_copy": -83.047908, "lat_copy": 42.330806 }, "geometry": { "type": "Point", "coordinates": [ -83.047908, 42.330806 ] } },
{ "type": "Feature", "properties": { "name": "Pizza Connection", "review_count": 80.0, "rating": 4.0, "price": "$", "zip_code": "48030", "is_black_owned": 0.0, "lon_copy": -83.10378, "lat_copy": 42.45505 }, "geometry": { "type": "Point", "coordinates": [ -83.10378, 42.45505 ] } },
{ "type": "Feature", "properties": { "name": "Epicurus Restaurant of Wayne state", "review_count": 35.0, "rating": 3.0, "price": "$", "zip_code": "48201", "is_black_owned": 0.0, "lon_copy": -83.0656266, "lat_copy": 42.3561414 }, "geometry": { "type": "Point", "coordinates": [ -83.0656266, 42.3561414 ] } },
{ "type": "Feature", "properties": { "name": "Vito's Olde Walkerville Pizzeria", "review_count": 55.0, "rating": 4.0, "price": "$$", "zip_code": "N8Y 1C9", "is_black_owned": 0.0, "lon_copy": -83.01448, "lat_copy": 42.3219 }, "geometry": { "type": "Point", "coordinates": [ -83.01448, 42.3219 ] } },
{ "type": "Feature", "properties": { "name": "The Lodge Diner", "review_count": 53.0, "rating": 3.0, "price": "$$", "zip_code": "48201", "is_black_owned": 0.0, "lon_copy": -83.067184, "lat_copy": 42.339241 }, "geometry": { "type": "Point", "coordinates": [ -83.067184, 42.339241 ] } },
{ "type": "Feature", "properties": { "name": "Grill Room at Detroit Athletic Club", "review_count": 15.0, "rating": 4.0, "price": "$$$$", "zip_code": "48226", "is_black_owned": 0.0, "lon_copy": -83.047290942284704, "lat_copy": 42.337504955755797 }, "geometry": { "type": "Point", "coordinates": [ -83.047290942284704, 42.337504955755797 ] } },
{ "type": "Feature", "properties": { "name": "Parks Old Style Bar-B-Q", "review_count": 80.0, "rating": 2.5, "price": "$$", "zip_code": "48202", "is_black_owned": 0.0, "lon_copy": -83.0681213, "lat_copy": 42.3737842 }, "geometry": { "type": "Point", "coordinates": [ -83.0681213, 42.3737842 ] } },
{ "type": "Feature", "properties": { "name": "Super Greenland Market", "review_count": 62.0, "rating": 3.5, "price": "$", "zip_code": "48126", "is_black_owned": 0.0, "lon_copy": -83.16734, "lat_copy": 42.34371 }, "geometry": { "type": "Point", "coordinates": [ -83.16734, 42.34371 ] } },
{ "type": "Feature", "properties": { "name": "Elmer's Hamburgers", "review_count": 16.0, "rating": 4.0, "price": "$", "zip_code": "48204", "is_black_owned": 0.0, "lon_copy": -83.1537887, "lat_copy": 42.3660739 }, "geometry": { "type": "Point", "coordinates": [ -83.1537887, 42.3660739 ] } },
{ "type": "Feature", "properties": { "name": "Delray Barbecue", "review_count": 7.0, "rating": 5.0, "price": null, "zip_code": "48209", "is_black_owned": 0.0, "lon_copy": -83.111000284552603, "lat_copy": 42.295849277935098 }, "geometry": { "type": "Point", "coordinates": [ -83.111000284552603, 42.295849277935098 ] } },
{ "type": "Feature", "properties": { "name": "The Sushi California", "review_count": 50.0, "rating": 4.0, "price": "$$", "zip_code": "N9A 5N9", "is_black_owned": 0.0, "lon_copy": -83.04052, "lat_copy": 42.31741 }, "geometry": { "type": "Point", "coordinates": [ -83.04052, 42.31741 ] } },
{ "type": "Feature", "properties": { "name": "New China One", "review_count": 34.0, "rating": 3.5, "price": "$", "zip_code": "48202", "is_black_owned": 0.0, "lon_copy": -83.0739136, "lat_copy": 42.3715096 }, "geometry": { "type": "Point", "coordinates": [ -83.0739136, 42.3715096 ] } },
{ "type": "Feature", "properties": { "name": "Jubba Restaurant", "review_count": 22.0, "rating": 4.5, "price": "$", "zip_code": "N9B 1J7", "is_black_owned": 0.0, "lon_copy": -83.05935, "lat_copy": 42.3064899 }, "geometry": { "type": "Point", "coordinates": [ -83.05935, 42.3064899 ] } },
{ "type": "Feature", "properties": { "name": "SugarBuzz Bakery", "review_count": 32.0, "rating": 5.0, "price": null, "zip_code": "48220", "is_black_owned": 0.0, "lon_copy": -83.13722, "lat_copy": 42.4638 }, "geometry": { "type": "Point", "coordinates": [ -83.13722, 42.4638 ] } },
{ "type": "Feature", "properties": { "name": "Taco Fiesta", "review_count": 5.0, "rating": 5.0, "price": null, "zip_code": "48216", "is_black_owned": 0.0, "lon_copy": -83.078369140625, "lat_copy": 42.329322814941406 }, "geometry": { "type": "Point", "coordinates": [ -83.078369140625, 42.329322814941406 ] } },
{ "type": "Feature", "properties": { "name": "Toasty's Grilled Cheese & Salad Bar", "review_count": 25.0, "rating": 4.5, "price": "$$", "zip_code": "N9A 4J1", "is_black_owned": 0.0, "lon_copy": -83.0385348, "lat_copy": 42.316702 }, "geometry": { "type": "Point", "coordinates": [ -83.0385348, 42.316702 ] } },
{ "type": "Feature", "properties": { "name": "Sloppy Chops", "review_count": 46.0, "rating": 3.0, "price": null, "zip_code": "48235", "is_black_owned": 0.0, "lon_copy": -83.176102526485906, "lat_copy": 42.416776302508502 }, "geometry": { "type": "Point", "coordinates": [ -83.176102526485906, 42.416776302508502 ] } },
{ "type": "Feature", "properties": { "name": "May's Bangkok Express", "review_count": 110.0, "rating": 4.0, "price": "$", "zip_code": "48220", "is_black_owned": 0.0, "lon_copy": -83.137839800244095, "lat_copy": 42.460771416221498 }, "geometry": { "type": "Point", "coordinates": [ -83.137839800244095, 42.460771416221498 ] } },
{ "type": "Feature", "properties": { "name": "Tin Roof", "review_count": 58.0, "rating": 2.5, "price": null, "zip_code": "48226", "is_black_owned": 0.0, "lon_copy": -83.050056, "lat_copy": 42.337605 }, "geometry": { "type": "Point", "coordinates": [ -83.050056, 42.337605 ] } },
{ "type": "Feature", "properties": { "name": "Triangulo Dorado", "review_count": 10.0, "rating": 4.0, "price": null, "zip_code": "48209", "is_black_owned": 0.0, "lon_copy": -83.12834, "lat_copy": 42.3107 }, "geometry": { "type": "Point", "coordinates": [ -83.12834, 42.3107 ] } },
{ "type": "Feature", "properties": { "name": "Lefty's Cheesesteak", "review_count": 49.0, "rating": 3.0, "price": null, "zip_code": "48203", "is_black_owned": 0.0, "lon_copy": -83.1208846, "lat_copy": 42.446056 }, "geometry": { "type": "Point", "coordinates": [ -83.1208846, 42.446056 ] } },
{ "type": "Feature", "properties": { "name": "Freshii", "review_count": 40.0, "rating": 3.0, "price": "$$", "zip_code": "48342", "is_black_owned": 0.0, "lon_copy": -83.04767, "lat_copy": 42.332056 }, "geometry": { "type": "Point", "coordinates": [ -83.04767, 42.332056 ] } },
{ "type": "Feature", "properties": { "name": "Al Haramain International Foods", "review_count": 14.0, "rating": 4.5, "price": null, "zip_code": "48212", "is_black_owned": 0.0, "lon_copy": -83.056096016889896, "lat_copy": 42.391782319592302 }, "geometry": { "type": "Point", "coordinates": [ -83.056096016889896, 42.391782319592302 ] } },
{ "type": "Feature", "properties": { "name": "Breadless", "review_count": 11.0, "rating": 4.5, "price": null, "zip_code": "48207", "is_black_owned": 0.0, "lon_copy": -83.01992, "lat_copy": 42.3399 }, "geometry": { "type": "Point", "coordinates": [ -83.01992, 42.3399 ] } },
{ "type": "Feature", "properties": { "name": "Legend's Coney Island West", "review_count": 11.0, "rating": 4.0, "price": "$", "zip_code": "48238", "is_black_owned": 0.0, "lon_copy": -83.121109008789105, "lat_copy": 42.393051147460902 }, "geometry": { "type": "Point", "coordinates": [ -83.121109008789105, 42.393051147460902 ] } },
{ "type": "Feature", "properties": { "name": "Paul's Kitchen", "review_count": 50.0, "rating": 4.5, "price": "$", "zip_code": "N8X 1T5", "is_black_owned": 0.0, "lon_copy": -83.0210515, "lat_copy": 42.2837324 }, "geometry": { "type": "Point", "coordinates": [ -83.0210515, 42.2837324 ] } },
{ "type": "Feature", "properties": { "name": "Sweetwater Express- Detroit", "review_count": 41.0, "rating": 3.0, "price": "$", "zip_code": "48235", "is_black_owned": 0.0, "lon_copy": -83.20153, "lat_copy": 42.41619 }, "geometry": { "type": "Point", "coordinates": [ -83.20153, 42.41619 ] } },
{ "type": "Feature", "properties": { "name": "Cadillac Café", "review_count": 26.0, "rating": 3.5, "price": "$$", "zip_code": "48226", "is_black_owned": 0.0, "lon_copy": -83.0488491, "lat_copy": 42.3365857 }, "geometry": { "type": "Point", "coordinates": [ -83.0488491, 42.3365857 ] } },
{ "type": "Feature", "properties": { "name": "Al Saha", "review_count": 58.0, "rating": 4.0, "price": "$$", "zip_code": "48126", "is_black_owned": 0.0, "lon_copy": -83.1822789, "lat_copy": 42.343903 }, "geometry": { "type": "Point", "coordinates": [ -83.1822789, 42.343903 ] } },
{ "type": "Feature", "properties": { "name": "Mama's Restaurant", "review_count": 13.0, "rating": 4.0, "price": "$", "zip_code": "48205", "is_black_owned": 0.0, "lon_copy": -82.973166343307426, "lat_copy": 42.449365111802365 }, "geometry": { "type": "Point", "coordinates": [ -82.973166343307426, 42.449365111802365 ] } },
{ "type": "Feature", "properties": { "name": "Reshmi Sweets & Cafe", "review_count": 49.0, "rating": 3.5, "price": "$", "zip_code": "48212", "is_black_owned": 0.0, "lon_copy": -83.05622, "lat_copy": 42.4084 }, "geometry": { "type": "Point", "coordinates": [ -83.05622, 42.4084 ] } },
{ "type": "Feature", "properties": { "name": "Noni's Sherwood Grille", "review_count": 32.0, "rating": 3.0, "price": "$", "zip_code": "48221", "is_black_owned": 0.0, "lon_copy": -83.14133, "lat_copy": 42.43721 }, "geometry": { "type": "Point", "coordinates": [ -83.14133, 42.43721 ] } },
{ "type": "Feature", "properties": { "name": "Bayview Yacht Club", "review_count": 7.0, "rating": 4.5, "price": null, "zip_code": "48215", "is_black_owned": 0.0, "lon_copy": -82.952323913574205, "lat_copy": 42.355972290039098 }, "geometry": { "type": "Point", "coordinates": [ -82.952323913574205, 42.355972290039098 ] } },
{ "type": "Feature", "properties": { "name": "Rock Bottom Bar & Grill", "review_count": 35.0, "rating": 4.0, "price": "$$", "zip_code": "N9C 1A8", "is_black_owned": 0.0, "lon_copy": -83.0761849, "lat_copy": 42.3011378 }, "geometry": { "type": "Point", "coordinates": [ -83.0761849, 42.3011378 ] } },
{ "type": "Feature", "properties": { "name": "Hot Taco", "review_count": 399.0, "rating": 3.0, "price": "$", "zip_code": "48201", "is_black_owned": 0.0, "lon_copy": -83.05386, "lat_copy": 42.33793 }, "geometry": { "type": "Point", "coordinates": [ -83.05386, 42.33793 ] } },
{ "type": "Feature", "properties": { "name": "nooch. a vegan eatery", "review_count": 14.0, "rating": 5.0, "price": "$$", "zip_code": "N9A 3Y6", "is_black_owned": 0.0, "lon_copy": -83.0212017, "lat_copy": 42.313547 }, "geometry": { "type": "Point", "coordinates": [ -83.0212017, 42.313547 ] } },
{ "type": "Feature", "properties": { "name": "Marcus Hamburgers", "review_count": 22.0, "rating": 4.5, "price": "$", "zip_code": "48212", "is_black_owned": 0.0, "lon_copy": -83.037269592285199, "lat_copy": 42.419445037841797 }, "geometry": { "type": "Point", "coordinates": [ -83.037269592285199, 42.419445037841797 ] } },
{ "type": "Feature", "properties": { "name": "Terra Cotta Pizzeria", "review_count": 29.0, "rating": 4.0, "price": "$$", "zip_code": "N9A 4K7", "is_black_owned": 0.0, "lon_copy": -83.0396997, "lat_copy": 42.3171087 }, "geometry": { "type": "Point", "coordinates": [ -83.0396997, 42.3171087 ] } },
{ "type": "Feature", "properties": { "name": "Country Restaurant", "review_count": 66.0, "rating": 4.0, "price": "$$", "zip_code": "48126", "is_black_owned": 0.0, "lon_copy": -83.17643, "lat_copy": 42.32523 }, "geometry": { "type": "Point", "coordinates": [ -83.17643, 42.32523 ] } },
{ "type": "Feature", "properties": { "name": "Cedarland Bakery", "review_count": 12.0, "rating": 5.0, "price": "$", "zip_code": "48126", "is_black_owned": 0.0, "lon_copy": -83.1715393, "lat_copy": 42.3438683 }, "geometry": { "type": "Point", "coordinates": [ -83.1715393, 42.3438683 ] } },
{ "type": "Feature", "properties": { "name": "BBQ Central", "review_count": 36.0, "rating": 3.0, "price": null, "zip_code": "48235", "is_black_owned": 0.0, "lon_copy": -83.171247405557295, "lat_copy": 42.430994159622699 }, "geometry": { "type": "Point", "coordinates": [ -83.171247405557295, 42.430994159622699 ] } },
{ "type": "Feature", "properties": { "name": "Sal's Pizza and Cafe", "review_count": 106.0, "rating": 3.5, "price": "$", "zip_code": "48126", "is_black_owned": 0.0, "lon_copy": -83.1855351, "lat_copy": 42.3243501 }, "geometry": { "type": "Point", "coordinates": [ -83.1855351, 42.3243501 ] } },
{ "type": "Feature", "properties": { "name": "L Georges Coney Island", "review_count": 20.0, "rating": 3.5, "price": "$", "zip_code": "48235", "is_black_owned": 0.0, "lon_copy": -83.180534362792997, "lat_copy": 42.416301727294901 }, "geometry": { "type": "Point", "coordinates": [ -83.180534362792997, 42.416301727294901 ] } },
{ "type": "Feature", "properties": { "name": "House of Pad Thai", "review_count": 26.0, "rating": 4.5, "price": "$$", "zip_code": "N9A 3K1", "is_black_owned": 0.0, "lon_copy": -83.0236, "lat_copy": 42.31854 }, "geometry": { "type": "Point", "coordinates": [ -83.0236, 42.31854 ] } },
{ "type": "Feature", "properties": { "name": "Wyoming Lunch", "review_count": 22.0, "rating": 4.5, "price": "$$", "zip_code": "48126", "is_black_owned": 0.0, "lon_copy": -83.156604543328299, "lat_copy": 42.325436053781097 }, "geometry": { "type": "Point", "coordinates": [ -83.156604543328299, 42.325436053781097 ] } },
{ "type": "Feature", "properties": { "name": "Pekin Pavilion", "review_count": 20.0, "rating": 3.5, "price": "$", "zip_code": "48207", "is_black_owned": 0.0, "lon_copy": -83.003883361816406, "lat_copy": 42.346584320068402 }, "geometry": { "type": "Point", "coordinates": [ -83.003883361816406, 42.346584320068402 ] } },
{ "type": "Feature", "properties": { "name": "Pine Coast Café", "review_count": 20.0, "rating": 5.0, "price": null, "zip_code": "48126", "is_black_owned": 0.0, "lon_copy": -83.180339, "lat_copy": 42.320727 }, "geometry": { "type": "Point", "coordinates": [ -83.180339, 42.320727 ] } },
{ "type": "Feature", "properties": { "name": "Applebee's Grill + Bar", "review_count": 97.0, "rating": 2.5, "price": "$$", "zip_code": "48203", "is_black_owned": 0.0, "lon_copy": -83.123058, "lat_copy": 42.446181 }, "geometry": { "type": "Point", "coordinates": [ -83.123058, 42.446181 ] } },
{ "type": "Feature", "properties": { "name": "Detroit Loves Tacos", "review_count": 4.0, "rating": 5.0, "price": null, "zip_code": "48216", "is_black_owned": 0.0, "lon_copy": -83.061369359493256, "lat_copy": 42.325189660130377 }, "geometry": { "type": "Point", "coordinates": [ -83.061369359493256, 42.325189660130377 ] } },
{ "type": "Feature", "properties": { "name": "Wing's Gardens", "review_count": 116.0, "rating": 4.0, "price": "$", "zip_code": "48237", "is_black_owned": 0.0, "lon_copy": -83.156036376953097, "lat_copy": 42.460403442382798 }, "geometry": { "type": "Point", "coordinates": [ -83.156036376953097, 42.460403442382798 ] } },
{ "type": "Feature", "properties": { "name": "Tortitas El Rojito", "review_count": 9.0, "rating": 4.0, "price": "$", "zip_code": "48209", "is_black_owned": 0.0, "lon_copy": -83.1167399, "lat_copy": 42.31548 }, "geometry": { "type": "Point", "coordinates": [ -83.1167399, 42.31548 ] } },
{ "type": "Feature", "properties": { "name": "Sakana Sushi Lounge", "review_count": 162.0, "rating": 3.5, "price": "$$", "zip_code": "48220", "is_black_owned": 0.0, "lon_copy": -83.135059621292697, "lat_copy": 42.461756321930103 }, "geometry": { "type": "Point", "coordinates": [ -83.135059621292697, 42.461756321930103 ] } },
{ "type": "Feature", "properties": { "name": "Iraqi Kabob", "review_count": 56.0, "rating": 3.5, "price": "$$", "zip_code": "48126", "is_black_owned": 0.0, "lon_copy": -83.177905, "lat_copy": 42.344154 }, "geometry": { "type": "Point", "coordinates": [ -83.177905, 42.344154 ] } },
{ "type": "Feature", "properties": { "name": "Hikari  Restaurant", "review_count": 36.0, "rating": 4.0, "price": "$$", "zip_code": "N9A 4M7", "is_black_owned": 0.0, "lon_copy": -83.04095, "lat_copy": 42.3164937 }, "geometry": { "type": "Point", "coordinates": [ -83.04095, 42.3164937 ] } },
{ "type": "Feature", "properties": { "name": "J's Penalty Box", "review_count": 66.0, "rating": 4.0, "price": "$$", "zip_code": "48220", "is_black_owned": 0.0, "lon_copy": -83.133725925925901, "lat_copy": 42.460033873041702 }, "geometry": { "type": "Point", "coordinates": [ -83.133725925925901, 42.460033873041702 ] } },
{ "type": "Feature", "properties": { "name": "Basil Court Restaurant", "review_count": 49.0, "rating": 4.0, "price": "$$", "zip_code": "N9A 4J1", "is_black_owned": 0.0, "lon_copy": -83.0391099, "lat_copy": 42.31709 }, "geometry": { "type": "Point", "coordinates": [ -83.0391099, 42.31709 ] } },
{ "type": "Feature", "properties": { "name": "1000 Degrees Pizza Salad Wings", "review_count": 6.0, "rating": 3.5, "price": null, "zip_code": "48202", "is_black_owned": 0.0, "lon_copy": -83.072540030852196, "lat_copy": 42.356470288881397 }, "geometry": { "type": "Point", "coordinates": [ -83.072540030852196, 42.356470288881397 ] } },
{ "type": "Feature", "properties": { "name": "Metro Fresh Fish & Seafood", "review_count": 7.0, "rating": 4.0, "price": null, "zip_code": "48223", "is_black_owned": 0.0, "lon_copy": -83.222175598144503, "lat_copy": 42.402637481689503 }, "geometry": { "type": "Point", "coordinates": [ -83.222175598144503, 42.402637481689503 ] } },
{ "type": "Feature", "properties": { "name": "Traverse City Whiskey Co. Outpost", "review_count": 31.0, "rating": 4.0, "price": "$$", "zip_code": "48220", "is_black_owned": 0.0, "lon_copy": -83.134214, "lat_copy": 42.460914 }, "geometry": { "type": "Point", "coordinates": [ -83.134214, 42.460914 ] } },
{ "type": "Feature", "properties": { "name": "Louie's Ham & Corn Beef Shop", "review_count": 38.0, "rating": 4.0, "price": "$$", "zip_code": "48089", "is_black_owned": 0.0, "lon_copy": -83.00821, "lat_copy": 42.46314 }, "geometry": { "type": "Point", "coordinates": [ -83.00821, 42.46314 ] } },
{ "type": "Feature", "properties": { "name": "Louisiana Creole Gumbo", "review_count": 16.0, "rating": 3.0, "price": "$", "zip_code": "48235", "is_black_owned": 0.0, "lon_copy": -83.17953, "lat_copy": 42.43085 }, "geometry": { "type": "Point", "coordinates": [ -83.17953, 42.43085 ] } },
{ "type": "Feature", "properties": { "name": "Mi Casita", "review_count": 24.0, "rating": 4.0, "price": "$$", "zip_code": "N9A 3H8", "is_black_owned": 0.0, "lon_copy": -83.030974566936493, "lat_copy": 42.316150510575298 }, "geometry": { "type": "Point", "coordinates": [ -83.030974566936493, 42.316150510575298 ] } },
{ "type": "Feature", "properties": { "name": "Bisher Market", "review_count": 9.0, "rating": 5.0, "price": null, "zip_code": "48120", "is_black_owned": 0.0, "lon_copy": -83.1532984, "lat_copy": 42.3124344 }, "geometry": { "type": "Point", "coordinates": [ -83.1532984, 42.3124344 ] } },
{ "type": "Feature", "properties": { "name": "Lape Soulfood", "review_count": 24.0, "rating": 3.0, "price": "$$", "zip_code": "48205", "is_black_owned": 0.0, "lon_copy": -82.965126, "lat_copy": 42.4353027 }, "geometry": { "type": "Point", "coordinates": [ -82.965126, 42.4353027 ] } },
{ "type": "Feature", "properties": { "name": "Shish Kabob Express - Allen Park", "review_count": 53.0, "rating": 3.5, "price": "$$", "zip_code": "48101", "is_black_owned": 0.0, "lon_copy": -83.2051923, "lat_copy": 42.2824949 }, "geometry": { "type": "Point", "coordinates": [ -83.2051923, 42.2824949 ] } },
{ "type": "Feature", "properties": { "name": "La Contessa Ristorante", "review_count": 14.0, "rating": 4.0, "price": "$$", "zip_code": "N9A 3Y2", "is_black_owned": 0.0, "lon_copy": -83.0229859, "lat_copy": 42.3129198 }, "geometry": { "type": "Point", "coordinates": [ -83.0229859, 42.3129198 ] } },
{ "type": "Feature", "properties": { "name": "New Center Grill", "review_count": 20.0, "rating": 3.0, "price": "$", "zip_code": "48202", "is_black_owned": 0.0, "lon_copy": -83.0762775, "lat_copy": 42.3703438 }, "geometry": { "type": "Point", "coordinates": [ -83.0762775, 42.3703438 ] } },
{ "type": "Feature", "properties": { "name": "The Grand Cantina", "review_count": 19.0, "rating": 4.0, "price": null, "zip_code": "N8Y 2P8", "is_black_owned": 0.0, "lon_copy": -82.99999, "lat_copy": 42.32177 }, "geometry": { "type": "Point", "coordinates": [ -82.99999, 42.32177 ] } },
{ "type": "Feature", "properties": { "name": "K & M Shish Palace", "review_count": 22.0, "rating": 4.0, "price": "$$", "zip_code": "48126", "is_black_owned": 0.0, "lon_copy": -83.17363, "lat_copy": 42.32253 }, "geometry": { "type": "Point", "coordinates": [ -83.17363, 42.32253 ] } },
{ "type": "Feature", "properties": { "name": "BIGGBY COFFEE", "review_count": 10.0, "rating": 3.5, "price": "$$", "zip_code": "48201", "is_black_owned": 0.0, "lon_copy": -83.054783, "lat_copy": 42.353853 }, "geometry": { "type": "Point", "coordinates": [ -83.054783, 42.353853 ] } },
{ "type": "Feature", "properties": { "name": "Joe Ann's Bar B-Q", "review_count": 10.0, "rating": 3.5, "price": "$$", "zip_code": "48212", "is_black_owned": 0.0, "lon_copy": -83.07001, "lat_copy": 42.42077 }, "geometry": { "type": "Point", "coordinates": [ -83.07001, 42.42077 ] } },
{ "type": "Feature", "properties": { "name": "Beyond Juicery + Eatery", "review_count": 5.0, "rating": 4.0, "price": null, "zip_code": "48202", "is_black_owned": 0.0, "lon_copy": -83.08036, "lat_copy": 42.36815 }, "geometry": { "type": "Point", "coordinates": [ -83.08036, 42.36815 ] } },
{ "type": "Feature", "properties": { "name": "El Palenque", "review_count": 8.0, "rating": 4.0, "price": "$", "zip_code": "48209", "is_black_owned": 0.0, "lon_copy": -83.101264953613295, "lat_copy": 42.318317413330099 }, "geometry": { "type": "Point", "coordinates": [ -83.101264953613295, 42.318317413330099 ] } },
{ "type": "Feature", "properties": { "name": "J T's Pizza", "review_count": 14.0, "rating": 4.5, "price": "$", "zip_code": "48126", "is_black_owned": 0.0, "lon_copy": -83.17659, "lat_copy": 42.329 }, "geometry": { "type": "Point", "coordinates": [ -83.17659, 42.329 ] } },
{ "type": "Feature", "properties": { "name": "Small World Kitchen", "review_count": 4.0, "rating": 4.5, "price": null, "zip_code": "48202", "is_black_owned": 0.0, "lon_copy": -83.0648231, "lat_copy": 42.3607914 }, "geometry": { "type": "Point", "coordinates": [ -83.0648231, 42.3607914 ] } },
{ "type": "Feature", "properties": { "name": "UWM District Market", "review_count": 15.0, "rating": 2.5, "price": null, "zip_code": "48201", "is_black_owned": 0.0, "lon_copy": -83.05433, "lat_copy": 42.340885 }, "geometry": { "type": "Point", "coordinates": [ -83.05433, 42.340885 ] } },
{ "type": "Feature", "properties": { "name": "The Greek Grill", "review_count": 24.0, "rating": 4.0, "price": "$$", "zip_code": "N9B 1V7", "is_black_owned": 0.0, "lon_copy": -83.05069, "lat_copy": 42.29425 }, "geometry": { "type": "Point", "coordinates": [ -83.05069, 42.29425 ] } },
{ "type": "Feature", "properties": { "name": "Rose Garden Chinese Cuisine", "review_count": 9.0, "rating": 4.5, "price": "$$", "zip_code": "N9A 5P8", "is_black_owned": 0.0, "lon_copy": -83.04479, "lat_copy": 42.31632 }, "geometry": { "type": "Point", "coordinates": [ -83.04479, 42.31632 ] } },
{ "type": "Feature", "properties": { "name": "Sky Crepe Cafe", "review_count": 56.0, "rating": 3.0, "price": "$$", "zip_code": "48126", "is_black_owned": 0.0, "lon_copy": -83.1768057, "lat_copy": 42.3432169 }, "geometry": { "type": "Point", "coordinates": [ -83.1768057, 42.3432169 ] } },
{ "type": "Feature", "properties": { "name": "Take Five Bistro", "review_count": 23.0, "rating": 4.0, "price": "$$", "zip_code": "N9A 3Z2", "is_black_owned": 0.0, "lon_copy": -83.0185547, "lat_copy": 42.3144455 }, "geometry": { "type": "Point", "coordinates": [ -83.0185547, 42.3144455 ] } },
{ "type": "Feature", "properties": { "name": "Shamiat Restaurant", "review_count": 3.0, "rating": 5.0, "price": null, "zip_code": "48228", "is_black_owned": 0.0, "lon_copy": -83.196502094728928, "lat_copy": 42.338949157510946 }, "geometry": { "type": "Point", "coordinates": [ -83.196502094728928, 42.338949157510946 ] } },
{ "type": "Feature", "properties": { "name": "Golden Wingz", "review_count": 10.0, "rating": 3.5, "price": null, "zip_code": "48227", "is_black_owned": 0.0, "lon_copy": -83.199082, "lat_copy": 42.396297 }, "geometry": { "type": "Point", "coordinates": [ -83.199082, 42.396297 ] } },
{ "type": "Feature", "properties": { "name": "The Prince's Bakery", "review_count": 11.0, "rating": 4.5, "price": "$", "zip_code": "48126", "is_black_owned": 0.0, "lon_copy": -83.165003368521894, "lat_copy": 42.344426037298703 }, "geometry": { "type": "Point", "coordinates": [ -83.165003368521894, 42.344426037298703 ] } },
{ "type": "Feature", "properties": { "name": "The Lumberjack", "review_count": 55.0, "rating": 3.0, "price": "$$", "zip_code": "N8X 2R7", "is_black_owned": 0.0, "lon_copy": -83.01743, "lat_copy": 42.29752 }, "geometry": { "type": "Point", "coordinates": [ -83.01743, 42.29752 ] } },
{ "type": "Feature", "properties": { "name": "Savvy Sliders", "review_count": 8.0, "rating": 3.5, "price": null, "zip_code": "48201", "is_black_owned": 0.0, "lon_copy": -83.0622, "lat_copy": 42.35475 }, "geometry": { "type": "Point", "coordinates": [ -83.0622, 42.35475 ] } },
{ "type": "Feature", "properties": { "name": "Hashbrowns Cafe", "review_count": 9.0, "rating": 4.0, "price": null, "zip_code": "48234", "is_black_owned": 0.0, "lon_copy": -83.0766907, "lat_copy": 42.4375992 }, "geometry": { "type": "Point", "coordinates": [ -83.0766907, 42.4375992 ] } },
{ "type": "Feature", "properties": { "name": "Terrace Cafe", "review_count": 5.0, "rating": 4.0, "price": "$", "zip_code": "48226", "is_black_owned": 0.0, "lon_copy": -83.046493530273395, "lat_copy": 42.328449249267599 }, "geometry": { "type": "Point", "coordinates": [ -83.046493530273395, 42.328449249267599 ] } },
{ "type": "Feature", "properties": { "name": "Wineology Restaurant & Bar", "review_count": 28.0, "rating": 3.5, "price": "$$", "zip_code": "N8Y 1C7", "is_black_owned": 0.0, "lon_copy": -83.015685737659197, "lat_copy": 42.321893996202299 }, "geometry": { "type": "Point", "coordinates": [ -83.015685737659197, 42.321893996202299 ] } },
{ "type": "Feature", "properties": { "name": "Alanos Pizza & Subs", "review_count": 46.0, "rating": 3.0, "price": "$$", "zip_code": "48126", "is_black_owned": 0.0, "lon_copy": -83.18073, "lat_copy": 42.32107 }, "geometry": { "type": "Point", "coordinates": [ -83.18073, 42.32107 ] } },
{ "type": "Feature", "properties": { "name": "On The Border Mexican Grill & Cantina", "review_count": 137.0, "rating": 3.0, "price": "$$", "zip_code": "48101", "is_black_owned": 0.0, "lon_copy": -83.206771910190582, "lat_copy": 42.28138790517238 }, "geometry": { "type": "Point", "coordinates": [ -83.206771910190582, 42.28138790517238 ] } },
{ "type": "Feature", "properties": { "name": "Conant Cafe' & Grill", "review_count": 13.0, "rating": 3.5, "price": "$", "zip_code": "48212", "is_black_owned": 0.0, "lon_copy": -83.04818, "lat_copy": 42.3964 }, "geometry": { "type": "Point", "coordinates": [ -83.04818, 42.3964 ] } },
{ "type": "Feature", "properties": { "name": "Bacchus Ristorante", "review_count": 8.0, "rating": 5.0, "price": null, "zip_code": "N9A 3X9", "is_black_owned": 0.0, "lon_copy": -83.024580515921102, "lat_copy": 42.312308670953897 }, "geometry": { "type": "Point", "coordinates": [ -83.024580515921102, 42.312308670953897 ] } },
{ "type": "Feature", "properties": { "name": "Twist Pretzels", "review_count": 15.0, "rating": 2.5, "price": null, "zip_code": "48226", "is_black_owned": 0.0, "lon_copy": -83.047832, "lat_copy": 42.3343733 }, "geometry": { "type": "Point", "coordinates": [ -83.047832, 42.3343733 ] } },
{ "type": "Feature", "properties": { "name": "El Jalapeño Mexican Restaurant & Taqueria", "review_count": 49.0, "rating": 4.0, "price": "$", "zip_code": "48101", "is_black_owned": 0.0, "lon_copy": -83.199771344661698, "lat_copy": 42.266190784993697 }, "geometry": { "type": "Point", "coordinates": [ -83.199771344661698, 42.266190784993697 ] } },
{ "type": "Feature", "properties": { "name": "Oven 360", "review_count": 17.0, "rating": 4.5, "price": null, "zip_code": "N9E 1E2", "is_black_owned": 0.0, "lon_copy": -83.0264802, "lat_copy": 42.2678088 }, "geometry": { "type": "Point", "coordinates": [ -83.0264802, 42.2678088 ] } },
{ "type": "Feature", "properties": { "name": "8 Mile Grill Coney Island", "review_count": 15.0, "rating": 3.0, "price": null, "zip_code": "48221", "is_black_owned": 0.0, "lon_copy": -83.151247323888029, "lat_copy": 42.4455395 }, "geometry": { "type": "Point", "coordinates": [ -83.151247323888029, 42.4455395 ] } },
{ "type": "Feature", "properties": { "name": "Stathis Grill", "review_count": 11.0, "rating": 4.5, "price": "$$", "zip_code": "N9B 1M2", "is_black_owned": 0.0, "lon_copy": -83.053189068897794, "lat_copy": 42.303731565692303 }, "geometry": { "type": "Point", "coordinates": [ -83.053189068897794, 42.303731565692303 ] } },
{ "type": "Feature", "properties": { "name": "Treehouse Bar & Grill", "review_count": 18.0, "rating": 3.5, "price": "$", "zip_code": "N9A 4J1", "is_black_owned": 0.0, "lon_copy": -83.0389, "lat_copy": 42.3167199 }, "geometry": { "type": "Point", "coordinates": [ -83.0389, 42.3167199 ] } },
{ "type": "Feature", "properties": { "name": "Joseph's Coney Island", "review_count": 8.0, "rating": 4.0, "price": null, "zip_code": "48215", "is_black_owned": 0.0, "lon_copy": -82.95826, "lat_copy": 42.36976 }, "geometry": { "type": "Point", "coordinates": [ -82.95826, 42.36976 ] } },
{ "type": "Feature", "properties": { "name": "Royal Grill", "review_count": 8.0, "rating": 3.5, "price": "$", "zip_code": "48204", "is_black_owned": 0.0, "lon_copy": -83.13834, "lat_copy": 42.36976 }, "geometry": { "type": "Point", "coordinates": [ -83.13834, 42.36976 ] } },
{ "type": "Feature", "properties": { "name": "Panda Chinese Restaurant", "review_count": 9.0, "rating": 3.5, "price": "$", "zip_code": "48223", "is_black_owned": 0.0, "lon_copy": -83.2242498, "lat_copy": 42.401859 }, "geometry": { "type": "Point", "coordinates": [ -83.2242498, 42.401859 ] } },
{ "type": "Feature", "properties": { "name": "Pryor’s Fine Food", "review_count": 3.0, "rating": 4.5, "price": null, "zip_code": "48234", "is_black_owned": 0.0, "lon_copy": -83.06922833, "lat_copy": 42.426485 }, "geometry": { "type": "Point", "coordinates": [ -83.06922833, 42.426485 ] } },
{ "type": "Feature", "properties": { "name": "Benihana", "review_count": 301.0, "rating": 2.0, "price": "$$$", "zip_code": "48126", "is_black_owned": 0.0, "lon_copy": -83.22089, "lat_copy": 42.32091 }, "geometry": { "type": "Point", "coordinates": [ -83.22089, 42.32091 ] } },
{ "type": "Feature", "properties": { "name": "All Star Fresh Fish and Seafood", "review_count": 2.0, "rating": 5.0, "price": "$$", "zip_code": "48227", "is_black_owned": 0.0, "lon_copy": -83.1982836, "lat_copy": 42.3861065 }, "geometry": { "type": "Point", "coordinates": [ -83.1982836, 42.3861065 ] } },
{ "type": "Feature", "properties": { "name": "Signature Hookah Lounge", "review_count": 29.0, "rating": 3.5, "price": "$$", "zip_code": "48126", "is_black_owned": 0.0, "lon_copy": -83.1869107321683, "lat_copy": 42.344062013666601 }, "geometry": { "type": "Point", "coordinates": [ -83.1869107321683, 42.344062013666601 ] } },
{ "type": "Feature", "properties": { "name": "Lajalisciense", "review_count": 2.0, "rating": 5.0, "price": null, "zip_code": "48216", "is_black_owned": 0.0, "lon_copy": -83.079048156738295, "lat_copy": 42.325340270996101 }, "geometry": { "type": "Point", "coordinates": [ -83.079048156738295, 42.325340270996101 ] } },
{ "type": "Feature", "properties": { "name": "Randy's Sausage", "review_count": 2.0, "rating": 5.0, "price": null, "zip_code": "48207", "is_black_owned": 0.0, "lon_copy": -83.038375854492202, "lat_copy": 42.344638824462898 }, "geometry": { "type": "Point", "coordinates": [ -83.038375854492202, 42.344638824462898 ] } },
{ "type": "Feature", "properties": { "name": "Detroit Sports Bar and Grille", "review_count": 16.0, "rating": 2.5, "price": null, "zip_code": "48226", "is_black_owned": 0.0, "lon_copy": -83.0498001, "lat_copy": 42.335707 }, "geometry": { "type": "Point", "coordinates": [ -83.0498001, 42.335707 ] } },
{ "type": "Feature", "properties": { "name": "House of Reuben", "review_count": 29.0, "rating": 4.0, "price": "$", "zip_code": "48089", "is_black_owned": 0.0, "lon_copy": -82.97266, "lat_copy": 42.4501 }, "geometry": { "type": "Point", "coordinates": [ -82.97266, 42.4501 ] } },
{ "type": "Feature", "properties": { "name": "Town Pump Tavern", "review_count": 4.0, "rating": 4.5, "price": null, "zip_code": "48201", "is_black_owned": 0.0, "lon_copy": -83.053996666666606, "lat_copy": 42.338038557959997 }, "geometry": { "type": "Point", "coordinates": [ -83.053996666666606, 42.338038557959997 ] } },
{ "type": "Feature", "properties": { "name": "La Thai Cuisine", "review_count": 40.0, "rating": 3.0, "price": null, "zip_code": "48126", "is_black_owned": 0.0, "lon_copy": -83.20346, "lat_copy": 42.32786 }, "geometry": { "type": "Point", "coordinates": [ -83.20346, 42.32786 ] } },
{ "type": "Feature", "properties": { "name": "Me And My Girls", "review_count": 11.0, "rating": 3.5, "price": "$$", "zip_code": "48205", "is_black_owned": 0.0, "lon_copy": -83.0027618, "lat_copy": 42.4347305 }, "geometry": { "type": "Point", "coordinates": [ -83.0027618, 42.4347305 ] } },
{ "type": "Feature", "properties": { "name": "King Kong Burgers", "review_count": 6.0, "rating": 3.5, "price": null, "zip_code": "48205", "is_black_owned": 0.0, "lon_copy": -83.003036007285104, "lat_copy": 42.434723406328096 }, "geometry": { "type": "Point", "coordinates": [ -83.003036007285104, 42.434723406328096 ] } },
{ "type": "Feature", "properties": { "name": "PizzaPapalis", "review_count": 11.0, "rating": 2.5, "price": null, "zip_code": "48207", "is_black_owned": 0.0, "lon_copy": -83.016988, "lat_copy": 42.341193 }, "geometry": { "type": "Point", "coordinates": [ -83.016988, 42.341193 ] } },
{ "type": "Feature", "properties": { "name": "Mandee's Jazz Cafe", "review_count": 6.0, "rating": 3.5, "price": "$$", "zip_code": "48212", "is_black_owned": 0.0, "lon_copy": -83.063736, "lat_copy": 42.4191589 }, "geometry": { "type": "Point", "coordinates": [ -83.063736, 42.4191589 ] } },
{ "type": "Feature", "properties": { "name": "Lava Java Cafe", "review_count": 45.0, "rating": 3.0, "price": "$$", "zip_code": "48126", "is_black_owned": 0.0, "lon_copy": -83.1943, "lat_copy": 42.318802 }, "geometry": { "type": "Point", "coordinates": [ -83.1943, 42.318802 ] } },
{ "type": "Feature", "properties": { "name": "Mark's A Eagle's Coney Island No 4", "review_count": 8.0, "rating": 3.5, "price": "$", "zip_code": "48227", "is_black_owned": 0.0, "lon_copy": -83.17006, "lat_copy": 42.40928 }, "geometry": { "type": "Point", "coordinates": [ -83.17006, 42.40928 ] } },
{ "type": "Feature", "properties": { "name": "Joseph's Bakery & Grill", "review_count": 8.0, "rating": 5.0, "price": null, "zip_code": "48122", "is_black_owned": 0.0, "lon_copy": -83.186482340097399, "lat_copy": 42.2809838240169 }, "geometry": { "type": "Point", "coordinates": [ -83.186482340097399, 42.2809838240169 ] } },
{ "type": "Feature", "properties": { "name": "J & J Coney Island III", "review_count": 3.0, "rating": 4.5, "price": "$", "zip_code": "48209", "is_black_owned": 0.0, "lon_copy": -83.12163, "lat_copy": 42.3139899 }, "geometry": { "type": "Point", "coordinates": [ -83.12163, 42.3139899 ] } },
{ "type": "Feature", "properties": { "name": "Olive Garden Italian Restaurant", "review_count": 113.0, "rating": 2.5, "price": "$$", "zip_code": "48126", "is_black_owned": 0.0, "lon_copy": -83.201230999187601, "lat_copy": 42.328600738764152 }, "geometry": { "type": "Point", "coordinates": [ -83.201230999187601, 42.328600738764152 ] } },
{ "type": "Feature", "properties": { "name": "Sam's Pizzeria & Cantina", "review_count": 22.0, "rating": 3.5, "price": "$$", "zip_code": "N9B 1K3", "is_black_owned": 0.0, "lon_copy": -83.06114, "lat_copy": 42.3054 }, "geometry": { "type": "Point", "coordinates": [ -83.06114, 42.3054 ] } },
{ "type": "Feature", "properties": { "name": "Applebee's Grill + Bar", "review_count": 100.0, "rating": 3.0, "price": "$$", "zip_code": "48101", "is_black_owned": 0.0, "lon_copy": -83.212306, "lat_copy": 42.278439 }, "geometry": { "type": "Point", "coordinates": [ -83.212306, 42.278439 ] } },
{ "type": "Feature", "properties": { "name": "Green Bean Café", "review_count": 13.0, "rating": 3.5, "price": "$", "zip_code": "N9B 1K4", "is_black_owned": 0.0, "lon_copy": -83.0625892, "lat_copy": 42.3053082 }, "geometry": { "type": "Point", "coordinates": [ -83.0625892, 42.3053082 ] } },
{ "type": "Feature", "properties": { "name": "Pizza Kitchen", "review_count": 45.0, "rating": 3.0, "price": "$", "zip_code": "48126", "is_black_owned": 0.0, "lon_copy": -83.19299, "lat_copy": 42.31751 }, "geometry": { "type": "Point", "coordinates": [ -83.19299, 42.31751 ] } },
{ "type": "Feature", "properties": { "name": "Taste of Indian Tandoori", "review_count": 9.0, "rating": 4.0, "price": "$$", "zip_code": "N9B 1B8", "is_black_owned": 0.0, "lon_copy": -83.0561218, "lat_copy": 42.3124847 }, "geometry": { "type": "Point", "coordinates": [ -83.0561218, 42.3124847 ] } },
{ "type": "Feature", "properties": { "name": "Golden Bowl Chop Suey", "review_count": 13.0, "rating": 2.5, "price": "$", "zip_code": "48235", "is_black_owned": 0.0, "lon_copy": -83.1771961, "lat_copy": 42.4164751 }, "geometry": { "type": "Point", "coordinates": [ -83.1771961, 42.4164751 ] } },
{ "type": "Feature", "properties": { "name": "Fu Lin", "review_count": 10.0, "rating": 3.0, "price": "$", "zip_code": "48206", "is_black_owned": 0.0, "lon_copy": -83.0971331, "lat_copy": 42.3728339 }, "geometry": { "type": "Point", "coordinates": [ -83.0971331, 42.3728339 ] } },
{ "type": "Feature", "properties": { "name": "Tommy's Bar-B-Q", "review_count": 17.0, "rating": 4.0, "price": "$$", "zip_code": "N8X 3Y9", "is_black_owned": 0.0, "lon_copy": -83.0056537, "lat_copy": 42.2744514 }, "geometry": { "type": "Point", "coordinates": [ -83.0056537, 42.2744514 ] } },
{ "type": "Feature", "properties": { "name": "Grandy's Coney Island", "review_count": 7.0, "rating": 3.0, "price": null, "zip_code": "48207", "is_black_owned": 0.0, "lon_copy": -83.02099609375, "lat_copy": 42.361213684082003 }, "geometry": { "type": "Point", "coordinates": [ -83.02099609375, 42.361213684082003 ] } },
{ "type": "Feature", "properties": { "name": "Super Coney Island", "review_count": 7.0, "rating": 3.0, "price": "$", "zip_code": "48211", "is_black_owned": 0.0, "lon_copy": -83.063644409179702, "lat_copy": 42.378227233886697 }, "geometry": { "type": "Point", "coordinates": [ -83.063644409179702, 42.378227233886697 ] } },
{ "type": "Feature", "properties": { "name": "3 Nicks Sports Bar", "review_count": 21.0, "rating": 4.0, "price": "$", "zip_code": "48126", "is_black_owned": 0.0, "lon_copy": -83.194625854492202, "lat_copy": 42.3209838867188 }, "geometry": { "type": "Point", "coordinates": [ -83.194625854492202, 42.3209838867188 ] } },
{ "type": "Feature", "properties": { "name": "Teenie's Deli", "review_count": 3.0, "rating": 4.5, "price": null, "zip_code": "48219", "is_black_owned": 0.0, "lon_copy": -83.221359252929702, "lat_copy": 42.430244445800803 }, "geometry": { "type": "Point", "coordinates": [ -83.221359252929702, 42.430244445800803 ] } },
{ "type": "Feature", "properties": { "name": "Krusty's Pizza", "review_count": 8.0, "rating": 5.0, "price": "$", "zip_code": "N8Y 3H9", "is_black_owned": 0.0, "lon_copy": -83.00599, "lat_copy": 42.31183 }, "geometry": { "type": "Point", "coordinates": [ -83.00599, 42.31183 ] } },
{ "type": "Feature", "properties": { "name": "Bash Mansour Bakery", "review_count": 6.0, "rating": 4.5, "price": null, "zip_code": "48126", "is_black_owned": 0.0, "lon_copy": -83.1771, "lat_copy": 42.3408299 }, "geometry": { "type": "Point", "coordinates": [ -83.1771, 42.3408299 ] } },
{ "type": "Feature", "properties": { "name": "AlTayeb Of Dearborn", "review_count": 13.0, "rating": 4.0, "price": null, "zip_code": "48126", "is_black_owned": 0.0, "lon_copy": -83.191189, "lat_copy": 42.343915 }, "geometry": { "type": "Point", "coordinates": [ -83.191189, 42.343915 ] } },
{ "type": "Feature", "properties": { "name": "Enzo's Trattoria", "review_count": 11.0, "rating": 4.0, "price": "$$", "zip_code": "N9A 3Z2", "is_black_owned": 0.0, "lon_copy": -83.01839, "lat_copy": 42.31415 }, "geometry": { "type": "Point", "coordinates": [ -83.01839, 42.31415 ] } },
{ "type": "Feature", "properties": { "name": "Senate Coney Island & Restaurant", "review_count": 42.0, "rating": 3.0, "price": "$", "zip_code": "48120", "is_black_owned": 0.0, "lon_copy": -83.1878357, "lat_copy": 42.3063278 }, "geometry": { "type": "Point", "coordinates": [ -83.1878357, 42.3063278 ] } },
{ "type": "Feature", "properties": { "name": "Coney Man", "review_count": 5.0, "rating": 3.5, "price": "$", "zip_code": "48202", "is_black_owned": 0.0, "lon_copy": -83.0762186, "lat_copy": 42.370085818406451 }, "geometry": { "type": "Point", "coordinates": [ -83.0762186, 42.370085818406451 ] } },
{ "type": "Feature", "properties": { "name": "Pho Mango", "review_count": 20.0, "rating": 3.5, "price": null, "zip_code": "N9C", "is_black_owned": 0.0, "lon_copy": -83.057576045393901, "lat_copy": 42.289039904355199 }, "geometry": { "type": "Point", "coordinates": [ -83.057576045393901, 42.289039904355199 ] } },
{ "type": "Feature", "properties": { "name": "The Dugout", "review_count": 16.0, "rating": 4.0, "price": "$$", "zip_code": "N9A 7B4", "is_black_owned": 0.0, "lon_copy": -83.03855, "lat_copy": 42.31731 }, "geometry": { "type": "Point", "coordinates": [ -83.03855, 42.31731 ] } },
{ "type": "Feature", "properties": { "name": "Halal Pizza", "review_count": 15.0, "rating": 2.5, "price": "$$", "zip_code": "48228", "is_black_owned": 0.0, "lon_copy": -83.196467, "lat_copy": 42.3385 }, "geometry": { "type": "Point", "coordinates": [ -83.196467, 42.3385 ] } },
{ "type": "Feature", "properties": { "name": "Koja Sushi", "review_count": 11.0, "rating": 4.0, "price": null, "zip_code": "48126", "is_black_owned": 0.0, "lon_copy": -83.181064006650701, "lat_copy": 42.320484670483502 }, "geometry": { "type": "Point", "coordinates": [ -83.181064006650701, 42.320484670483502 ] } },
{ "type": "Feature", "properties": { "name": "T-Mo's BBQ Pit", "review_count": 11.0, "rating": 4.5, "price": null, "zip_code": "48221", "is_black_owned": 0.0, "lon_copy": -83.14516, "lat_copy": 42.4169 }, "geometry": { "type": "Point", "coordinates": [ -83.14516, 42.4169 ] } },
{ "type": "Feature", "properties": { "name": "Happy Four Party Store", "review_count": 4.0, "rating": 4.0, "price": "$", "zip_code": "48216", "is_black_owned": 0.0, "lon_copy": -83.061332702636705, "lat_copy": 42.3250122070312 }, "geometry": { "type": "Point", "coordinates": [ -83.061332702636705, 42.3250122070312 ] } },
{ "type": "Feature", "properties": { "name": "Cannelle Matt Knio", "review_count": 170.0, "rating": 4.5, "price": null, "zip_code": "48228", "is_black_owned": 0.0, "lon_copy": -83.049523, "lat_copy": 42.333639 }, "geometry": { "type": "Point", "coordinates": [ -83.049523, 42.333639 ] } },
{ "type": "Feature", "properties": { "name": "Mootz Pizzeria + Bar", "review_count": 279.0, "rating": 4.0, "price": "$$", "zip_code": "48226", "is_black_owned": 0.0, "lon_copy": -83.046934, "lat_copy": 42.334431 }, "geometry": { "type": "Point", "coordinates": [ -83.046934, 42.334431 ] } },
{ "type": "Feature", "properties": { "name": "San Morello", "review_count": 426.0, "rating": 4.0, "price": "$$$", "zip_code": "48226", "is_black_owned": 0.0, "lon_copy": -83.04848, "lat_copy": 42.33439 }, "geometry": { "type": "Point", "coordinates": [ -83.04848, 42.33439 ] } },
{ "type": "Feature", "properties": { "name": "The London Chop House", "review_count": 314.0, "rating": 4.0, "price": "$$$$", "zip_code": "48226", "is_black_owned": 0.0, "lon_copy": -83.0476038, "lat_copy": 42.3292667 }, "geometry": { "type": "Point", "coordinates": [ -83.0476038, 42.3292667 ] } },
{ "type": "Feature", "properties": { "name": "Prime and Proper", "review_count": 480.0, "rating": 3.5, "price": "$$$$", "zip_code": "48226", "is_black_owned": 0.0, "lon_copy": -83.0493105, "lat_copy": 42.3322879 }, "geometry": { "type": "Point", "coordinates": [ -83.0493105, 42.3322879 ] } },
{ "type": "Feature", "properties": { "name": "Cliff Bell's", "review_count": 588.0, "rating": 3.5, "price": "$$", "zip_code": "48226", "is_black_owned": 0.0, "lon_copy": -83.0527165, "lat_copy": 42.3368149 }, "geometry": { "type": "Point", "coordinates": [ -83.0527165, 42.3368149 ] } },
{ "type": "Feature", "properties": { "name": "Lumen Detroit", "review_count": 369.0, "rating": 4.0, "price": "$$", "zip_code": "48226", "is_black_owned": 0.0, "lon_copy": -83.0546893, "lat_copy": 42.3345218 }, "geometry": { "type": "Point", "coordinates": [ -83.0546893, 42.3345218 ] } },
{ "type": "Feature", "properties": { "name": "Downtown Louie's", "review_count": 282.0, "rating": 4.0, "price": "$$", "zip_code": "48226", "is_black_owned": 0.0, "lon_copy": -83.050144289286294, "lat_copy": 42.334879348717998 }, "geometry": { "type": "Point", "coordinates": [ -83.050144289286294, 42.334879348717998 ] } },
{ "type": "Feature", "properties": { "name": "Olin Bar & Kitchen", "review_count": 109.0, "rating": 4.5, "price": "$$$", "zip_code": "48226", "is_black_owned": 0.0, "lon_copy": -83.048094, "lat_copy": 42.334564 }, "geometry": { "type": "Point", "coordinates": [ -83.048094, 42.334564 ] } },
{ "type": "Feature", "properties": { "name": "Rusted Crow Detroit", "review_count": 380.0, "rating": 3.5, "price": "$$", "zip_code": "48226", "is_black_owned": 0.0, "lon_copy": -83.052405416965499, "lat_copy": 42.336490302644897 }, "geometry": { "type": "Point", "coordinates": [ -83.052405416965499, 42.336490302644897 ] } },
{ "type": "Feature", "properties": { "name": "Leila", "review_count": 132.0, "rating": 4.0, "price": null, "zip_code": "48226", "is_black_owned": 0.0, "lon_copy": -83.049995, "lat_copy": 42.333249 }, "geometry": { "type": "Point", "coordinates": [ -83.049995, 42.333249 ] } },
{ "type": "Feature", "properties": { "name": "Calexico - Detroit", "review_count": 490.0, "rating": 3.0, "price": "$$", "zip_code": "48226", "is_black_owned": 0.0, "lon_copy": -83.047510701984692, "lat_copy": 42.332913879187657 }, "geometry": { "type": "Point", "coordinates": [ -83.047510701984692, 42.332913879187657 ] } },
{ "type": "Feature", "properties": { "name": "Caucus Club", "review_count": 146.0, "rating": 4.0, "price": "$$$", "zip_code": "48226", "is_black_owned": 0.0, "lon_copy": -83.047595923761307, "lat_copy": 42.3295624555684 }, "geometry": { "type": "Point", "coordinates": [ -83.047595923761307, 42.3295624555684 ] } },
{ "type": "Feature", "properties": { "name": "Iggy’s Eggies", "review_count": 113.0, "rating": 4.0, "price": "$", "zip_code": "48226", "is_black_owned": 0.0, "lon_copy": -83.049282279921002, "lat_copy": 42.3338849519508 }, "geometry": { "type": "Point", "coordinates": [ -83.049282279921002, 42.3338849519508 ] } },
{ "type": "Feature", "properties": { "name": "Rocco's Italian Deli", "review_count": 134.0, "rating": 4.5, "price": "$$", "zip_code": "48201", "is_black_owned": 0.0, "lon_copy": -83.06157, "lat_copy": 42.3464699 }, "geometry": { "type": "Point", "coordinates": [ -83.06157, 42.3464699 ] } },
{ "type": "Feature", "properties": { "name": "Luigi's Original Restaurant", "review_count": 211.0, "rating": 4.0, "price": "$$", "zip_code": "48045", "is_black_owned": 0.0, "lon_copy": -82.83975, "lat_copy": 42.56926 }, "geometry": { "type": "Point", "coordinates": [ -82.83975, 42.56926 ] } },
{ "type": "Feature", "properties": { "name": "Gina's Cafe", "review_count": 218.0, "rating": 4.5, "price": "$", "zip_code": "48035", "is_black_owned": 0.0, "lon_copy": -82.86931, "lat_copy": 42.55908 }, "geometry": { "type": "Point", "coordinates": [ -82.86931, 42.55908 ] } },
{ "type": "Feature", "properties": { "name": "New Age Noodles", "review_count": 144.0, "rating": 4.5, "price": "$$", "zip_code": "48043", "is_black_owned": 0.0, "lon_copy": -82.876101, "lat_copy": 42.601151 }, "geometry": { "type": "Point", "coordinates": [ -82.876101, 42.601151 ] } },
{ "type": "Feature", "properties": { "name": "The Goblin", "review_count": 115.0, "rating": 5.0, "price": "$", "zip_code": "48035", "is_black_owned": 0.0, "lon_copy": -82.896175, "lat_copy": 42.56197833 }, "geometry": { "type": "Point", "coordinates": [ -82.896175, 42.56197833 ] } },
{ "type": "Feature", "properties": { "name": "Brioni's", "review_count": 63.0, "rating": 4.5, "price": "$", "zip_code": "48045", "is_black_owned": 0.0, "lon_copy": -82.84033, "lat_copy": 42.56867 },