{
"type": "FeatureCollection",
"name": "chicago_non_black_owned",
"crs": { "type": "name", "properties": { "name": "urn:ogc:def:crs:OGC:1.3:CRS84" } },
"features": [
{ "type": "Feature", "properties": { "address": "2251 S Fort St, Detroit, MI 48217, United States", "name": "Ella Mae's place", "rating": 4.5, "n_ratings": 112, "city": "Detroit", "black_owned": true }, "geometry": { "type": "Point", "coordinates": [ -83.1571482, 42.2735382 ] } },
{ "type": "Feature", "properties": { "address": "10009 Curtis St, Detroit, MI 48221, United States", "name": "Chef Greg's Soul-N-The Wall", "rating": 4.3, "n_ratings": 273, "city": "Detroit", "black_owned": true }, "geometry": { "type": "Point", "coordinates": [ -83.1611401, 42.4240524 ] } },
{ "type": "Feature", "properties": { "address": "1431 Times Square, Detroit, MI 48226, United States", "name": "SavannahBlue", "rating": 4.3, "n_ratings": 1990, "city": "Detroit", "black_owned": true }, "geometry": { "type": "Point", "coordinates": [ -83.0522887, 42.3341913 ] } },
{ "type": "Feature", "properties": { "address": "11365 Steel St, Detroit, MI 48227, United States", "name": "SHARPEST EATERY", "rating": 4.1, "n_ratings": 25, "city": "Detroit", "black_owned": true }, "geometry": { "type": "Point", "coordinates": [ -83.1708457, 42.3718225 ] } },
{ "type": "Feature", "properties": { "address": "2900 8 Mile Rd, Detroit, MI 48234, United States", "name": "Detroit Soul", "rating": 4.2, "n_ratings": 647, "city": "Detroit", "black_owned": true }, "geometry": { "type": "Point", "coordinates": [ -83.0739124, 42.4468416 ] } },
{ "type": "Feature", "properties": { "address": "13205 W Chicago, Detroit, MI 48228, United States", "name": "Uncle Ricky's", "rating": 4.3, "n_ratings": 16, "city": "Detroit", "black_owned": true }, "geometry": { "type": "Point", "coordinates": [ -83.1741876, 42.3657283 ] } },
{ "type": "Feature", "properties": { "address": "21611 Grand River Ave, Detroit, MI 48219, United States", "name": "Maty's Cuisine", "rating": 4.6, "n_ratings": 577, "city": "Detroit", "black_owned": true }, "geometry": { "type": "Point", "coordinates": [ -83.2555105, 42.4153419 ] } },
{ "type": "Feature", "properties": { "address": "24737 Eight Mile Rd, Detroit, MI 48219, United States", "name": "LeCulture Cafe", "rating": 3.9, "n_ratings": 1119, "city": "Detroit", "black_owned": true }, "geometry": { "type": "Point", "coordinates": [ -83.2861007, 42.4424262 ] } },
{ "type": "Feature", "properties": { "address": "16400 W 7 Mile Rd, Detroit, MI 48235, United States", "name": "Seasoned Soul Kitchen & Catering", "rating": 5.0, "n_ratings": 4, "city": "Detroit", "black_owned": true }, "geometry": { "type": "Point", "coordinates": [ -83.2099052, 42.4304223 ] } },
{ "type": "Feature", "properties": { "address": "13741 W McNichols Rd, Detroit, MI 48235, United States", "name": "Sweet Soul Bistro", "rating": 3.7, "n_ratings": 754, "city": "Detroit", "black_owned": true }, "geometry": { "type": "Point", "coordinates": [ -83.1817438, 42.4164256 ] } },
{ "type": "Feature", "properties": { "address": "16400 W 7 Mile Rd, Detroit, MI 48235, United States", "name": "Kelley's Kitchen", "rating": 4.3, "n_ratings": 13, "city": "Detroit", "black_owned": true }, "geometry": { "type": "Point", "coordinates": [ -83.2099045, 42.43041 ] } },
{ "type": "Feature", "properties": { "address": "18035 Conant, Detroit, MI 48234, United States", "name": "Pryor's Fine Food", "rating": 4.3, "n_ratings": 92, "city": "Detroit", "black_owned": true }, "geometry": { "type": "Point", "coordinates": [ -83.0692884, 42.4265067 ] } },
{ "type": "Feature", "properties": { "address": "3005 S Fort St, Detroit, MI 48217, United States", "name": "MooreSoul Food", "rating": 4.3, "n_ratings": 141, "city": "Detroit", "black_owned": true }, "geometry": { "type": "Point", "coordinates": [ -83.162541300000015, 42.2670394 ] } },
{ "type": "Feature", "properties": { "address": "20351 Conant, Detroit, MI 48234, United States", "name": "R.C.K SOUL FOOD", "rating": 3.7, "n_ratings": 143, "city": "Detroit", "black_owned": true }, "geometry": { "type": "Point", "coordinates": [ -83.0824512, 42.4447317 ] } },
{ "type": "Feature", "properties": { "address": "1535 E Lafayette St, Detroit, MI 48207, United States", "name": "Urban Soul Restaurant", "rating": 3.9, "n_ratings": 1572, "city": "Detroit", "black_owned": true }, "geometry": { "type": "Point", "coordinates": [ -83.0328172, 42.3384478 ] } },
{ "type": "Feature", "properties": { "address": "20711 Plymouth Rd, Detroit, MI 48228, United States", "name": "Platinum Soul Food", "rating": 0.0, "n_ratings": 0, "city": "Detroit", "black_owned": true }, "geometry": { "type": "Point", "coordinates": [ -83.2439357, 42.371545 ] } },
{ "type": "Feature", "properties": { "address": "6549 Woodward Ave, Detroit, MI 48202, United States", "name": "Joe Louis Southern Kitchen", "rating": 4.3, "n_ratings": 1046, "city": "Detroit", "black_owned": true }, "geometry": { "type": "Point", "coordinates": [ -83.073425899999989, 42.369684799999987 ] } },
{ "type": "Feature", "properties": { "address": "2709 S Fort St, Detroit, MI 48217, United States", "name": "Grill Culture", "rating": 3.4, "n_ratings": 5, "city": "Detroit", "black_owned": true }, "geometry": { "type": "Point", "coordinates": [ -83.1604325, 42.2695708 ] } },
{ "type": "Feature", "properties": { "address": "267 Jos Campau, Detroit, MI 48207, United States", "name": "They Say Restaurant", "rating": 4.1, "n_ratings": 2322, "city": "Detroit", "black_owned": true }, "geometry": { "type": "Point", "coordinates": [ -83.0190162, 42.338187 ] } },
{ "type": "Feature", "properties": { "address": "1316 E Jefferson Ave, Detroit, MI 48207, United States", "name": "Savanna blue restaurant", "rating": 4.3, "n_ratings": 4, "city": "Detroit", "black_owned": true }, "geometry": { "type": "Point", "coordinates": [ -83.0333287, 42.3330742 ] } },
{ "type": "Feature", "properties": { "address": "1440 Franklin St, Detroit, MI 48207, United States", "name": "Steve's Soul Food", "rating": 3.9, "n_ratings": 684, "city": "Detroit", "black_owned": true }, "geometry": { "type": "Point", "coordinates": [ -83.0308167, 42.3329004 ] } },
{ "type": "Feature", "properties": { "address": "719 Griswold St #180, Detroit, MI 48226, United States", "name": "Dime Store", "rating": 4.6, "n_ratings": 2539, "city": "Detroit", "black_owned": true }, "geometry": { "type": "Point", "coordinates": [ -83.0478507, 42.3308914 ] } },
{ "type": "Feature", "properties": { "address": "660 Woodward Ave #4A, Detroit, MI 48226, United States", "name": "Central Kitchen + Bar", "rating": 4.3, "n_ratings": 1256, "city": "Detroit", "black_owned": true }, "geometry": { "type": "Point", "coordinates": [ -83.0457084, 42.3312678 ] } },
{ "type": "Feature", "properties": { "address": "3526 Michigan Ave, Detroit, MI 48216, United States", "name": "Snack In A Box", "rating": 4.4, "n_ratings": 39, "city": "Detroit", "black_owned": true }, "geometry": { "type": "Point", "coordinates": [ -83.0925617, 42.331638 ] } },
{ "type": "Feature", "properties": { "address": "575 Bellevue St, Detroit, MI 48207, United States", "name": "Southern Fire Restaurant", "rating": 3.7, "n_ratings": 2667, "city": "Detroit", "black_owned": true }, "geometry": { "type": "Point", "coordinates": [ -83.008132500000016, 42.3474097 ] } },
{ "type": "Feature", "properties": { "address": "9215 E Jefferson Ave, Detroit, MI 48214, United States", "name": "IVY Kitchen + Cocktails", "rating": 4.2, "n_ratings": 778, "city": "Detroit", "black_owned": true }, "geometry": { "type": "Point", "coordinates": [ -82.985269699999989, 42.3585828 ] } },
{ "type": "Feature", "properties": { "address": "6500 Woodward Ave, Detroit, MI 48202, United States", "name": "Yumvillage", "rating": 4.3, "n_ratings": 881, "city": "Detroit", "black_owned": true }, "geometry": { "type": "Point", "coordinates": [ -83.0722728, 42.3693663 ] } },
{ "type": "Feature", "properties": { "address": "11701 Grayton St, Detroit, MI 48224, United States", "name": "Nebras kitchen LLC", "rating": 5.0, "n_ratings": 1, "city": "Detroit", "black_owned": true }, "geometry": { "type": "Point", "coordinates": [ -82.9557538, 42.4223722 ] } },
{ "type": "Feature", "properties": { "address": "14300 E Jefferson Ave, Detroit, MI 48215, United States", "name": "Detroit Soul", "rating": 4.2, "n_ratings": 83, "city": "Detroit", "black_owned": true }, "geometry": { "type": "Point", "coordinates": [ -82.9453262, 42.3721282 ] } },
{ "type": "Feature", "properties": { "address": "6470 E Jefferson Ave, Detroit, MI 48207, United States", "name": "Le Petit Dejeuner", "rating": 4.0, "n_ratings": 1128, "city": "Detroit", "black_owned": true }, "geometry": { "type": "Point", "coordinates": [ -83.0078589, 42.3444055 ] } },
{ "type": "Feature", "properties": { "address": "1045 Brush St, Detroit, MI 48226, United States", "name": "TABLE No. 2 Restaurant", "rating": 4.7, "n_ratings": 496, "city": "Detroit", "black_owned": true }, "geometry": { "type": "Point", "coordinates": [ -83.0438613, 42.3342399 ] } },
{ "type": "Feature", "properties": { "address": "19551-1, 19551 Plymouth Rd, Detroit, MI 48228, United States", "name": "C Ruff's International Cuisine", "rating": 3.4, "n_ratings": 110, "city": "Detroit", "black_owned": true }, "geometry": { "type": "Point", "coordinates": [ -83.233246, 42.3716251 ] } },
{ "type": "Feature", "properties": { "address": "9371 Auburn St, Detroit, MI 48228, United States", "name": "Dame's eatery", "rating": 5.0, "n_ratings": 34, "city": "Detroit", "black_owned": true }, "geometry": { "type": "Point", "coordinates": [ -83.2338904, 42.363948 ] } },
{ "type": "Feature", "properties": { "address": "14621 Fenkell Ave #300, Detroit, MI 48227, United States", "name": "Topey's Kitchen", "rating": 4.4, "n_ratings": 89, "city": "Detroit", "black_owned": true }, "geometry": { "type": "Point", "coordinates": [ -83.189559, 42.4015883 ] } },
{ "type": "Feature", "properties": { "address": "3919 Woodward Ave, Detroit, MI 48201, United States", "name": "The Block", "rating": 4.3, "n_ratings": 1093, "city": "Detroit", "black_owned": true }, "geometry": { "type": "Point", "coordinates": [ -83.05997, 42.3498889 ] } },
{ "type": "Feature", "properties": { "address": "2051 Gratiot Ave, Detroit, MI 48207, United States", "name": "Louisiana Creole Gumbo", "rating": 4.2, "n_ratings": 1387, "city": "Detroit", "black_owned": true }, "geometry": { "type": "Point", "coordinates": [ -83.0345747, 42.3493539 ] } },
{ "type": "Feature", "properties": { "address": "19841 Schoolcraft Rd, Detroit, MI 48223, United States", "name": "Fun On The Run Soulfood", "rating": 4.1, "n_ratings": 13, "city": "Detroit", "black_owned": true }, "geometry": { "type": "Point", "coordinates": [ -83.2364318, 42.3859876 ] } },
{ "type": "Feature", "properties": { "address": "19241 Joy Rd, Detroit, MI 48228, United States", "name": "Soul To Go Kitchen", "rating": 3.2, "n_ratings": 39, "city": "Detroit", "black_owned": true }, "geometry": { "type": "Point", "coordinates": [ -83.2295036, 42.3572966 ] } },
{ "type": "Feature", "properties": { "address": "18516 Schoolcraft Rd, Detroit, MI 48223, United States", "name": "Detroit Family Soul", "rating": 4.0, "n_ratings": 487, "city": "Detroit", "black_owned": true }, "geometry": { "type": "Point", "coordinates": [ -83.2227161, 42.3868154 ] } },
{ "type": "Feature", "properties": { "address": "19228 Livernois, Detroit, MI 48221, United States", "name": "Fork In Nigeria", "rating": 4.3, "n_ratings": 763, "city": "Detroit", "black_owned": true }, "geometry": { "type": "Point", "coordinates": [ -83.141295, 42.4333491 ] } },
{ "type": "Feature", "properties": { "address": "17600 W McNichols Rd, Detroit, MI 48235, United States", "name": "Mr. B's Soul Food- Detroit", "rating": 3.9, "n_ratings": 1038, "city": "Detroit", "black_owned": true }, "geometry": { "type": "Point", "coordinates": [ -83.2157478, 42.4158253 ] } },
{ "type": "Feature", "properties": { "address": "20342 Grand River Ave, Detroit, MI 48219, United States", "name": "Honey's", "rating": 4.2, "n_ratings": 230, "city": "Detroit", "black_owned": true }, "geometry": { "type": "Point", "coordinates": [ -83.2416643, 42.4102726 ] } },
{ "type": "Feature", "properties": { "address": "18456 Grand River Ave, Detroit, MI 48223, United States", "name": "BBQ CENTRAL", "rating": 4.0, "n_ratings": 151, "city": "Detroit", "black_owned": true }, "geometry": { "type": "Point", "coordinates": [ -83.2225633, 42.4026228 ] } },
{ "type": "Feature", "properties": { "address": "13300 W Seven Mile Rd, Detroit, MI 48235, United States", "name": "BBQ CENTRAL", "rating": 4.1, "n_ratings": 731, "city": "Detroit", "black_owned": true }, "geometry": { "type": "Point", "coordinates": [ -83.1775, 42.4313842 ] } },
{ "type": "Feature", "properties": { "address": "6751 Floyd Ave, Detroit, MI 48210, United States", "name": "Fried Chicken and Fries Soulfood", "rating": 0.0, "n_ratings": 0, "city": "Detroit", "black_owned": true }, "geometry": { "type": "Point", "coordinates": [ -83.1385772, 42.3460349 ] } },
{ "type": "Feature", "properties": { "address": "7625 W Warren Ave, Detroit, MI 48210, United States", "name": "Brooksey's Exclusive Lounge", "rating": 4.2, "n_ratings": 174, "city": "Detroit", "black_owned": true }, "geometry": { "type": "Point", "coordinates": [ -83.1454469, 42.3446148 ] } },
{ "type": "Feature", "properties": { "address": "1266 Michigan Ave, Detroit, MI 48226, United States", "name": "The Brooklyn Street Local LLC", "rating": 4.5, "n_ratings": 731, "city": "Detroit", "black_owned": true }, "geometry": { "type": "Point", "coordinates": [ -83.0635874, 42.3317191 ] } },
{ "type": "Feature", "properties": { "address": "2727 Russell St, Detroit, MI 48207, United States", "name": "Bert's Marketplace", "rating": 4.0, "n_ratings": 2125, "city": "Detroit", "black_owned": true }, "geometry": { "type": "Point", "coordinates": [ -83.041322900000011, 42.3473333 ] } },
{ "type": "Feature", "properties": { "address": "78 W Adams Ave, Detroit, MI 48226, United States", "name": "District Seventy8", "rating": 4.2, "n_ratings": 222, "city": "Detroit", "black_owned": true }, "geometry": { "type": "Point", "coordinates": [ -83.0524056, 42.3365608 ] } },
{ "type": "Feature", "properties": { "address": "2760 Larned St, Detroit, MI 48207, United States", "name": "Breadless", "rating": 4.8, "n_ratings": 241, "city": "Detroit", "black_owned": true }, "geometry": { "type": "Point", "coordinates": [ -83.0202731, 42.34006 ] } },
{ "type": "Feature", "properties": { "address": "Robert C Valade Park 2670, 2670 Atwater St, Detroit, MI 48207, United States", "name": "Smokey G's Smokehouse", "rating": 4.5, "n_ratings": 144, "city": "Detroit", "black_owned": true }, "geometry": { "type": "Point", "coordinates": [ -83.0193536, 42.3355055 ] } },
{ "type": "Feature", "properties": { "address": "21306 Schoolcraft Rd, Detroit, MI 48223, United States", "name": "LEE'S EAT 'EM UP CAFE", "rating": 5.0, "n_ratings": 4, "city": "Detroit", "black_owned": true }, "geometry": { "type": "Point", "coordinates": [ -83.2504753, 42.386300299999988 ] } },
{ "type": "Feature", "properties": { "address": "9345 Coyle St, Detroit, MI 48228, United States", "name": "Tasty Treats & More", "rating": 4.5, "n_ratings": 11, "city": "Detroit", "black_owned": true }, "geometry": { "type": "Point", "coordinates": [ -83.1932244, 42.3639129 ] } },
{ "type": "Feature", "properties": { "address": "Upper, 3820 W Euclid St, Detroit, MI 48206, United States", "name": "Janes Eatery Detroit", "rating": 0.0, "n_ratings": 0, "city": "Detroit", "black_owned": true }, "geometry": { "type": "Point", "coordinates": [ -83.1156687, 42.3633206 ] } },
{ "type": "Feature", "properties": { "address": "5602 Allendale St, Detroit, MI 48204, United States", "name": "Latisha's Catering and Planning Event LLC", "rating": 5.0, "n_ratings": 4, "city": "Detroit", "black_owned": true }, "geometry": { "type": "Point", "coordinates": [ -83.1286097, 42.352943499999988 ] } },
{ "type": "Feature", "properties": { "address": "4830 Cass Ave Suite C, Detroit, MI 48201, United States", "name": "SuperCrisp", "rating": 4.5, "n_ratings": 252, "city": "Detroit", "black_owned": true }, "geometry": { "type": "Point", "coordinates": [ -83.0662076, 42.3555462 ] } },
{ "type": "Feature", "properties": { "address": "474 Peterboro St, Detroit, MI 48201, United States", "name": "COOP Caribbean Fusion", "rating": 3.8, "n_ratings": 79, "city": "Detroit", "black_owned": true }, "geometry": { "type": "Point", "coordinates": [ -83.0615614, 42.344127 ] } },
{ "type": "Feature", "properties": { "address": "2638 Orleans St, Detroit, MI 48207, United States", "name": "Cutter's Bar & Grill", "rating": 4.3, "n_ratings": 1076, "city": "Detroit", "black_owned": true }, "geometry": { "type": "Point", "coordinates": [ -83.0378145, 42.3483443 ] } },
{ "type": "Feature", "properties": { "address": "13031 Mack Ave, Detroit, MI 48215, United States", "name": "Maison's Fine Food", "rating": 4.1, "n_ratings": 328, "city": "Detroit", "black_owned": true }, "geometry": { "type": "Point", "coordinates": [ -82.9612876, 42.385066 ] } },
{ "type": "Feature", "properties": { "address": "16801 Plymouth Rd, Detroit, MI 48227, United States", "name": "Fusion Flare Kitchen & Cocktails", "rating": 4.7, "n_ratings": 455, "city": "Detroit", "black_owned": true }, "geometry": { "type": "Point", "coordinates": [ -83.2109644, 42.3722179 ] } },
{ "type": "Feature", "properties": { "address": "14421 Plymouth Rd, Detroit, MI 48227, United States", "name": "Club Celebrity", "rating": 3.8, "n_ratings": 238, "city": "Detroit", "black_owned": true }, "geometry": { "type": "Point", "coordinates": [ -83.1858725, 42.3726433 ] } },
{ "type": "Feature", "properties": { "address": "12815 Linwood St, Detroit, MI 48238, United States", "name": "Curbside Soul Food", "rating": 4.0, "n_ratings": 9, "city": "Detroit", "black_owned": true }, "geometry": { "type": "Point", "coordinates": [ -83.1204683, 42.3904329 ] } },
{ "type": "Feature", "properties": { "address": "6500 Woodward Ave, Detroit, MI 48202, United States", "name": "Taste of Black Spirits", "rating": 0.0, "n_ratings": 0, "city": "Detroit", "black_owned": true }, "geometry": { "type": "Point", "coordinates": [ -83.0722728, 42.3693663 ] } },
{ "type": "Feature", "properties": { "address": "6568 Woodward Ave Suite 100, Detroit, MI 48202, United States", "name": "Baobab Fare", "rating": 4.8, "n_ratings": 823, "city": "Detroit", "black_owned": true }, "geometry": { "type": "Point", "coordinates": [ -83.0729687, 42.3701362 ] } },
{ "type": "Feature", "properties": { "address": "14628 E Jefferson Ave, Detroit, MI 48215, United States", "name": "Norma G's Detroit", "rating": 4.4, "n_ratings": 524, "city": "Detroit", "black_owned": true }, "geometry": { "type": "Point", "coordinates": [ -82.9414075, 42.3738307 ] } },
{ "type": "Feature", "properties": { "address": "15236 Seven Mile E, Detroit, MI 48205, United States", "name": "Lape Soul Food", "rating": 4.3, "n_ratings": 1026, "city": "Detroit", "black_owned": true }, "geometry": { "type": "Point", "coordinates": [ -82.9642898, 42.435169 ] } },
{ "type": "Feature", "properties": { "address": "19300 Schoolcraft Rd, Detroit, MI 48223, United States", "name": "Munchiez soul food", "rating": 4.2, "n_ratings": 26, "city": "Detroit", "black_owned": true }, "geometry": { "type": "Point", "coordinates": [ -83.231066, 42.3865427 ] } },
{ "type": "Feature", "properties": { "address": "14582 Strathmoor St, Detroit, MI 48227, United States", "name": "Lashai's Grill", "rating": 5.0, "n_ratings": 3, "city": "Detroit", "black_owned": true }, "geometry": { "type": "Point", "coordinates": [ -83.1872217, 42.3958478 ] } },
{ "type": "Feature", "properties": { "address": "13531 Appoline St, Detroit, MI 48227, United States", "name": "Splashy's Go Crazy Wingz", "rating": 4.0, "n_ratings": 4, "city": "Detroit", "black_owned": true }, "geometry": { "type": "Point", "coordinates": [ -83.1700103, 42.386316099999988 ] } },
{ "type": "Feature", "properties": { "address": "15700 Livernois, Detroit, MI 48238, United States", "name": "Uptown BBQ & Soulfood", "rating": 3.6, "n_ratings": 2292, "city": "Detroit", "black_owned": true }, "geometry": { "type": "Point", "coordinates": [ -83.1401442, 42.4066566 ] } },
{ "type": "Feature", "properties": { "address": "12548 Livernois, Detroit, MI 48204, United States", "name": "Everything Turkey", "rating": 4.1, "n_ratings": 229, "city": "Detroit", "black_owned": true }, "geometry": { "type": "Point", "coordinates": [ -83.1390093, 42.3805952 ] } },
{ "type": "Feature", "properties": { "address": "16801 Freeland St, Detroit, MI 48235, United States", "name": "Poppa Stoppa Soul Food", "rating": 5.0, "n_ratings": 2, "city": "Detroit", "black_owned": true }, "geometry": { "type": "Point", "coordinates": [ -83.1863568, 42.4144934 ] } },
{ "type": "Feature", "properties": { "address": "11611 Linwood St, Detroit, MI 48206, United States", "name": "Blues Restaurant", "rating": 4.2, "n_ratings": 225, "city": "Detroit", "black_owned": true }, "geometry": { "type": "Point", "coordinates": [ -83.1148022, 42.3822353 ] } },
{ "type": "Feature", "properties": { "address": "9350 Woodward Ave, Detroit, MI 48202, United States", "name": "Burn Bar & Grill", "rating": 3.8, "n_ratings": 99, "city": "Detroit", "black_owned": true }, "geometry": { "type": "Point", "coordinates": [ -83.0820634, 42.3842072 ] } },
{ "type": "Feature", "properties": { "address": "9488 Conner St, Detroit, MI 48213, United States", "name": "Detroit Breakfast", "rating": 4.1, "n_ratings": 87, "city": "Detroit", "black_owned": true }, "geometry": { "type": "Point", "coordinates": [ -82.9921931, 42.4006003 ] } },
{ "type": "Feature", "properties": { "address": "12829 Harper Ave, Detroit, MI 48213, United States", "name": "Detroit Wing Spot", "rating": 3.7, "n_ratings": 317, "city": "Detroit", "black_owned": true }, "geometry": { "type": "Point", "coordinates": [ -82.9737195, 42.4021587 ] } },
{ "type": "Feature", "properties": { "address": "9900 Whittier Ave, Detroit, MI 48224, United States", "name": "Soul 2 Go", "rating": 4.3, "n_ratings": 123, "city": "Detroit", "black_owned": true }, "geometry": { "type": "Point", "coordinates": [ -82.9475003, 42.4148073 ] } },
{ "type": "Feature", "properties": { "address": "16353 E Warren Ave, Detroit, MI 48224, United States", "name": "The Soulfood Shawarma Bistro", "rating": 3.9, "n_ratings": 276, "city": "Detroit", "black_owned": true }, "geometry": { "type": "Point", "coordinates": [ -82.9388656, 42.4030734 ] } },
{ "type": "Feature", "properties": { "address": "18050 Lahser Rd, Detroit, MI 48219, United States", "name": "DeAngelo's 313 Soul Cafe", "rating": 3.8, "n_ratings": 403, "city": "Detroit", "black_owned": true }, "geometry": { "type": "Point", "coordinates": [ -83.257659, 42.4212231 ] } },
{ "type": "Feature", "properties": { "address": "17330 Fielding St, Detroit, MI 48219, United States", "name": "AvenueSoul", "rating": 5.0, "n_ratings": 2, "city": "Detroit", "black_owned": true }, "geometry": { "type": "Point", "coordinates": [ -83.2434912, 42.417763 ] } },
{ "type": "Feature", "properties": { "address": "19614 Grand River Ave, Detroit, MI 48223, United States", "name": "Detroit Vegan Soul", "rating": 4.4, "n_ratings": 781, "city": "Detroit", "black_owned": true }, "geometry": { "type": "Point", "coordinates": [ -83.2352873, 42.4079068 ] } },
{ "type": "Feature", "properties": { "address": "16903 Schaefer Hwy, Detroit, MI 48235, United States", "name": "House of Gumbo", "rating": 3.7, "n_ratings": 190, "city": "Detroit", "black_owned": true }, "geometry": { "type": "Point", "coordinates": [ -83.1800395, 42.415995 ] } },
{ "type": "Feature", "properties": { "address": "14340 W McNichols Rd, Detroit, MI 48235, United States", "name": "Southern Smokehouse", "rating": 4.1, "n_ratings": 1465, "city": "Detroit", "black_owned": true }, "geometry": { "type": "Point", "coordinates": [ -83.1871006, 42.4167196 ] } },
{ "type": "Feature", "properties": { "address": "8425 W McNichols Rd, Detroit, MI 48221, United States", "name": "Farmacy Food", "rating": 4.7, "n_ratings": 14, "city": "Detroit", "black_owned": true }, "geometry": { "type": "Point", "coordinates": [ -83.155533, 42.4154259 ] } },
{ "type": "Feature", "properties": { "address": "410 W McNichols Rd, Detroit, MI 48203, United States", "name": "Mitten Kitchen", "rating": 5.0, "n_ratings": 11, "city": "Detroit", "black_owned": true }, "geometry": { "type": "Point", "coordinates": [ -83.109373, 42.417991 ] } },
{ "type": "Feature", "properties": { "address": "2440 Seven Mile E, Detroit, MI 48234, United States", "name": "Generations Bistro Soul Food", "rating": 4.6, "n_ratings": 101, "city": "Detroit", "black_owned": true }, "geometry": { "type": "Point", "coordinates": [ -83.0771933, 42.4326651 ] } },
{ "type": "Feature", "properties": { "address": "5625 Charles St, Detroit, MI 48212, United States", "name": "LeRoy’s Kitchen", "rating": 5.0, "n_ratings": 11, "city": "Detroit", "black_owned": true }, "geometry": { "type": "Point", "coordinates": [ -83.0460986, 42.412046 ] } },
{ "type": "Feature", "properties": { "address": "19416 Van Dyke Ave, Detroit, MI 48234, United States", "name": "Me & My Girls Soul Food", "rating": 3.9, "n_ratings": 817, "city": "Detroit", "black_owned": true }, "geometry": { "type": "Point", "coordinates": [ -83.0241053, 42.437426 ] } },
{ "type": "Feature", "properties": { "address": "14287 Seymour St, Detroit, MI 48205, United States", "name": "Greedy Greg's Soul Food", "rating": 4.4, "n_ratings": 14, "city": "Detroit", "black_owned": true }, "geometry": { "type": "Point", "coordinates": [ -82.975293, 42.4271846 ] } },
{ "type": "Feature", "properties": { "address": "16369 E Warren Ave, Detroit, MI 48224, United States", "name": "Flamz Pizzeria", "rating": 4.6, "n_ratings": 314, "city": "Detroit", "black_owned": true }, "geometry": { "type": "Point", "coordinates": [ -82.9383484, 42.4031259 ] } },
{ "type": "Feature", "properties": { "address": "18975 Telegraph Rd, Detroit, MI 48219, United States", "name": "Jacob kitchen 18935", "rating": 0.0, "n_ratings": 0, "city": "Detroit", "black_owned": true }, "geometry": { "type": "Point", "coordinates": [ -83.2782859, 42.4271699 ] } },
{ "type": "Feature", "properties": { "address": "20716 W Seven Mile Rd, Detroit, MI 48219, United States", "name": "Loaded On The Go", "rating": 3.6, "n_ratings": 5, "city": "Detroit", "black_owned": true }, "geometry": { "type": "Point", "coordinates": [ -83.2466178, 42.4296134 ] } },
{ "type": "Feature", "properties": { "address": "8000 Outer Dr W, Detroit, MI 48235, United States", "name": "Als Soul Food", "rating": 3.8, "n_ratings": 126, "city": "Detroit", "black_owned": true }, "geometry": { "type": "Point", "coordinates": [ -83.2172243, 42.4204577 ] } },
{ "type": "Feature", "properties": { "address": "17805 W Seven Mile Rd, Detroit, MI 48235, United States", "name": "El's Kitchen Food Court", "rating": 3.9, "n_ratings": 98, "city": "Detroit", "black_owned": true }, "geometry": { "type": "Point", "coordinates": [ -83.2182964, 42.4297079 ] } },
{ "type": "Feature", "properties": { "address": "19021 W 7 Mile Rd, Detroit, MI 48219, United States", "name": "L and L Barbeque", "rating": 4.9, "n_ratings": 7, "city": "Detroit", "black_owned": true }, "geometry": { "type": "Point", "coordinates": [ -83.2291667, 42.4296697 ] } },
{ "type": "Feature", "properties": { "address": "18980 Schaefer Hwy, Detroit, MI 48235, United States", "name": "Mr. B's Soul Food 2", "rating": 4.1, "n_ratings": 134, "city": "Detroit", "black_owned": true }, "geometry": { "type": "Point", "coordinates": [ -83.1802891, 42.430445 ] } },
{ "type": "Feature", "properties": { "address": "12700 W Seven Mile Rd, Detroit, MI 48235, United States", "name": "Motor City Soul Food", "rating": 3.9, "n_ratings": 2551, "city": "Detroit", "black_owned": true }, "geometry": { "type": "Point", "coordinates": [ -83.1708914, 42.4314087 ] } },
{ "type": "Feature", "properties": { "address": "14615 Eight Mile Rd, Detroit, MI 48235, United States", "name": "The Jamaican Pot", "rating": 4.2, "n_ratings": 1431, "city": "Detroit", "black_owned": true }, "geometry": { "type": "Point", "coordinates": [ -83.1911359, 42.4446747 ] } },
{ "type": "Feature", "properties": { "address": "19870 Lauder St, Detroit, MI 48235, United States", "name": "Lil Warren’s", "rating": 0.0, "n_ratings": 0, "city": "Detroit", "black_owned": true }, "geometry": { "type": "Point", "coordinates": [ -83.1925151, 42.4377279 ] } },
{ "type": "Feature", "properties": { "address": "19345 Livernois, Detroit, MI 48221, United States", "name": "Kuzzo's Chicken & Waffles", "rating": 3.6, "n_ratings": 2824, "city": "Detroit", "black_owned": true }, "geometry": { "type": "Point", "coordinates": [ -83.1418216, 42.4341334 ] } },
{ "type": "Feature", "properties": { "address": "19416 Livernois, Detroit, MI 48221, United States", "name": "Good Times On The Ave", "rating": 3.9, "n_ratings": 530, "city": "Detroit", "black_owned": true }, "geometry": { "type": "Point", "coordinates": [ -83.1412581, 42.4355749 ] } },
{ "type": "Feature", "properties": { "address": "20050 Livernois, Detroit, MI 48221, United States", "name": "Petty Cash", "rating": 4.3, "n_ratings": 305, "city": "Detroit", "black_owned": true }, "geometry": { "type": "Point", "coordinates": [ -83.1414885, 42.4409955 ] } },
{ "type": "Feature", "properties": { "address": "114 W Seven Mile Rd, Detroit, MI 48203, United States", "name": "Halo Fish & Chicken Market", "rating": 4.1, "n_ratings": 36, "city": "Detroit", "black_owned": true }, "geometry": { "type": "Point", "coordinates": [ -83.1044677, 42.4324918 ] } },
{ "type": "Feature", "properties": { "address": "19196 Conant, Detroit, MI 48234, United States", "name": "Nunn's Bar-B-Cue II", "rating": 4.0, "n_ratings": 1042, "city": "Detroit", "black_owned": true }, "geometry": { "type": "Point", "coordinates": [ -83.0744822, 42.4342767 ] } },
{ "type": "Feature", "properties": { "address": "1648 Seven Mile E, Detroit, MI 48203, United States", "name": "Jed's Detroit", "rating": 4.4, "n_ratings": 57, "city": "Detroit", "black_owned": true }, "geometry": { "type": "Point", "coordinates": [ -83.0866601, 42.4326377 ] } },
{ "type": "Feature", "properties": { "address": "1141 Seven Mile E, Detroit, MI 48203, United States", "name": "Aunt Bessie's BBQ Ribs and Soul", "rating": 3.9, "n_ratings": 7, "city": "Detroit", "black_owned": true }, "geometry": { "type": "Point", "coordinates": [ -83.0917874, 42.4326967 ] } },
{ "type": "Feature", "properties": { "address": "19706 Sherwood St, Detroit, MI 48234, United States", "name": "Felicia's Soul Food", "rating": 0.0, "n_ratings": 0, "city": "Detroit", "black_owned": true }, "geometry": { "type": "Point", "coordinates": [ -83.0338382, 42.4401979 ] } },
{ "type": "Feature", "properties": { "address": "11840 Morang Ave, Detroit, MI 48224, United States", "name": "Hall Star Grill", "rating": 4.6, "n_ratings": 43, "city": "Detroit", "black_owned": true }, "geometry": { "type": "Point", "coordinates": [ -82.950657, 42.4265748 ] } },
{ "type": "Feature", "properties": { "address": "18221 M-102, Detroit, MI 48219, United States", "name": "D Town Fish and Soul Food", "rating": 4.1, "n_ratings": 248, "city": "Detroit", "black_owned": true }, "geometry": { "type": "Point", "coordinates": [ -83.2218318, 42.444016 ] } },
{ "type": "Feature", "properties": { "address": "20510 Livernois, Detroit, MI 48221, United States", "name": "Juanita's Kitchen", "rating": 1.0, "n_ratings": 1, "city": "Detroit", "black_owned": true }, "geometry": { "type": "Point", "coordinates": [ -83.141753799999989, 42.445418 ] } },
{ "type": "Feature", "properties": { "address": "2900 8 Mile Rd, Detroit, MI 48234, United States", "name": "M & J's Soul Food & Rib Palace", "rating": 4.1, "n_ratings": 11, "city": "Detroit", "black_owned": true }, "geometry": { "type": "Point", "coordinates": [ -83.0739257, 42.4468426 ] } },
{ "type": "Feature", "properties": { "address": "13560 E McNichols Rd, Detroit, MI 48205, United States", "name": "Motown Dawg Slingers", "rating": 5.0, "n_ratings": 12, "city": "Detroit", "black_owned": true }, "geometry": { "type": "Point", "coordinates": [ -82.9843856, 42.4265856 ] } },
{ "type": "Feature", "properties": { "address": "19153 Van Dyke Ave, Detroit, MI 48234, United States", "name": "4 Of A Kind", "rating": 4.5, "n_ratings": 208, "city": "Detroit", "black_owned": true }, "geometry": { "type": "Point", "coordinates": [ -83.0245096, 42.4347731 ] } },
{ "type": "Feature", "properties": { "address": "10936 S Vincennes Ave, Chicago, IL 60643, United States", "name": "Jean’s SoulFood Cafe", "rating": 4.1, "n_ratings": 250, "city": "Chicago", "black_owned": true }, "geometry": { "type": "Point", "coordinates": [ -87.661706, 41.6948943 ] } },
{ "type": "Feature", "properties": { "address": "11142 S Halsted St #3911, Chicago, IL 60628, United States", "name": "The Good Life Soul Food Cafe", "rating": 4.1, "n_ratings": 649, "city": "Chicago", "black_owned": true }, "geometry": { "type": "Point", "coordinates": [ -87.642556, 41.691103 ] } },
{ "type": "Feature", "properties": { "address": "4655 S Martin Luther King Dr, Chicago, IL 60653, United States", "name": "Bronzeville Soul", "rating": 4.2, "n_ratings": 159, "city": "Chicago", "black_owned": true }, "geometry": { "type": "Point", "coordinates": [ -87.615945400000015, 41.8096281 ] } },
{ "type": "Feature", "properties": { "address": "3804 W 16th St, Chicago, IL 60623, United States", "name": "The Soul Food Lounge", "rating": 4.7, "n_ratings": 201, "city": "Chicago", "black_owned": true }, "geometry": { "type": "Point", "coordinates": [ -87.7204907, 41.859042 ] } },
{ "type": "Feature", "properties": { "address": "5045 W Madison St, Chicago, IL 60644, United States", "name": "The Licking Chicago", "rating": 3.4, "n_ratings": 741, "city": "Chicago", "black_owned": true }, "geometry": { "type": "Point", "coordinates": [ -87.752305299999989, 41.8799445 ] } },
{ "type": "Feature", "properties": { "address": "10343 S Halsted St, Chicago, IL 60628, United States", "name": "Kisha’s kitchen", "rating": 4.3, "n_ratings": 114, "city": "Chicago", "black_owned": true }, "geometry": { "type": "Point", "coordinates": [ -87.6423695, 41.7057288 ] } },
{ "type": "Feature", "properties": { "address": "8311 S Baltimore Ave, Chicago, IL 60617, United States", "name": "Southside African Restaurant", "rating": 4.2, "n_ratings": 327, "city": "Chicago", "black_owned": true }, "geometry": { "type": "Point", "coordinates": [ -87.5551141, 41.7444924 ] } },
{ "type": "Feature", "properties": { "address": "5815 W Madison St, Chicago, IL 60644, United States", "name": "Splyt \\N/ Half Kitchen (Soul Food Everyday)", "rating": 4.4, "n_ratings": 110, "city": "Chicago", "black_owned": true }, "geometry": { "type": "Point", "coordinates": [ -87.7704334, 41.8799166 ] } },
{ "type": "Feature", "properties": { "address": "5944 W Lake St, Chicago, IL 60644, United States", "name": "Chef Daddy's", "rating": 4.2, "n_ratings": 678, "city": "Chicago", "black_owned": true }, "geometry": { "type": "Point", "coordinates": [ -87.773775200000017, 41.8881515 ] } },
{ "type": "Feature", "properties": { "address": "2518 W 63rd St, Chicago, IL 60629, United States", "name": "Garifuna Flava: A Taste of Belize | Jerk Chicken Chicago", "rating": 4.5, "n_ratings": 724, "city": "Chicago", "black_owned": true }, "geometry": { "type": "Point", "coordinates": [ -87.6869542, 41.7794589 ] } },
{ "type": "Feature", "properties": { "address": "436 E 79th St, Chicago, IL 60619, United States", "name": "Josephine's Southern Cooking", "rating": 3.8, "n_ratings": 594, "city": "Chicago", "black_owned": true }, "geometry": { "type": "Point", "coordinates": [ -87.613450700000016, 41.7512581 ] } },
{ "type": "Feature", "properties": { "address": "8103 S Cottage Grove Ave, Chicago, IL 60619, United States", "name": "King Soul Food Gallery", "rating": 3.9, "n_ratings": 141, "city": "Chicago", "black_owned": true }, "geometry": { "type": "Point", "coordinates": [ -87.604725, 41.7474512 ] } },
{ "type": "Feature", "properties": { "address": "4609 N Lincoln Ave, Chicago, IL 60625, United States", "name": "Luella's Southern Kitchen", "rating": 4.4, "n_ratings": 1298, "city": "Chicago", "black_owned": true }, "geometry": { "type": "Point", "coordinates": [ -87.6861538, 41.9651973 ] } },
{ "type": "Feature", "properties": { "address": "Located inside Veron Point Plaza, 2024 W 119th St, Chicago, IL 60643, United States", "name": "Red Carpet Food 4 The Soul", "rating": 3.7, "n_ratings": 48, "city": "Chicago", "black_owned": true }, "geometry": { "type": "Point", "coordinates": [ -87.6715268, 41.6775705 ] } },
{ "type": "Feature", "properties": { "address": "4652 S King Dr, Chicago, IL 60653, United States", "name": "Peach's Restaurant", "rating": 4.1, "n_ratings": 1771, "city": "Chicago", "black_owned": true }, "geometry": { "type": "Point", "coordinates": [ -87.6169795, 41.8094816 ] } },
{ "type": "Feature", "properties": { "address": "2523 W 79th St, Chicago, IL 60652, United States", "name": "Dan's Soul Food and Cafe", "rating": 3.6, "n_ratings": 755, "city": "Chicago", "black_owned": true }, "geometry": { "type": "Point", "coordinates": [ -87.6862744, 41.7499052 ] } },
{ "type": "Feature", "properties": { "address": "33 E 83rd St, Chicago, IL 60619, United States", "name": "Oooh Wee It Is", "rating": 4.1, "n_ratings": 1605, "city": "Chicago", "black_owned": true }, "geometry": { "type": "Point", "coordinates": [ -87.6232463, 41.7435055 ] } },
{ "type": "Feature", "properties": { "address": "131 N Clinton St, Chicago, IL 60661, United States", "name": "Kathryn's Soul", "rating": 4.2, "n_ratings": 34, "city": "Chicago", "black_owned": true }, "geometry": { "type": "Point", "coordinates": [ -87.640857, 41.8841608 ] } },
{ "type": "Feature", "properties": { "address": "2801 E 83rd St, Chicago, IL 60617, United States", "name": "LIL Country Soulfood", "rating": 3.9, "n_ratings": 52, "city": "Chicago", "black_owned": true }, "geometry": { "type": "Point", "coordinates": [ -87.5562341, 41.7444139 ] } },
{ "type": "Feature", "properties": { "address": "1225 E 87th St, Chicago, IL 60619, United States", "name": "Gladys' Restaurant", "rating": 3.8, "n_ratings": 138, "city": "Chicago", "black_owned": true }, "geometry": { "type": "Point", "coordinates": [ -87.5940345, 41.7367041 ] } },
{ "type": "Feature", "properties": { "address": "10253 S Prairie Ave, Chicago, IL 60628, United States", "name": "Magic City Bbq Catering & Soul", "rating": 4.5, "n_ratings": 28, "city": "Chicago", "black_owned": true }, "geometry": { "type": "Point", "coordinates": [ -87.6171641, 41.7077738 ] } },
{ "type": "Feature", "properties": { "address": "1552 W 119th St, Chicago, IL 60643, United States", "name": "Cafe Harold's", "rating": 3.9, "n_ratings": 22, "city": "Chicago", "black_owned": true }, "geometry": { "type": "Point", "coordinates": [ -87.6610928, 41.6778228 ] } },
{ "type": "Feature", "properties": { "address": "11346 S Michigan Ave, Chicago, IL 60628, United States", "name": "TRUTH Ribzzz & More...", "rating": 3.9, "n_ratings": 144, "city": "Chicago", "black_owned": true }, "geometry": { "type": "Point", "coordinates": [ -87.6210976, 41.6876012 ] } },
{ "type": "Feature", "properties": { "address": "1737 E 95th St, Chicago, IL 60617, United States", "name": "BJ's Market & Bakery", "rating": 3.7, "n_ratings": 929, "city": "Chicago", "black_owned": true }, "geometry": { "type": "Point", "coordinates": [ -87.5812703, 41.721305 ] } },
{ "type": "Feature", "properties": { "address": "10419 S Peoria St, Chicago, IL 60643, United States", "name": "222", "rating": 5.0, "n_ratings": 7, "city": "Chicago", "black_owned": true }, "geometry": { "type": "Point", "coordinates": [ -87.6449795, 41.7045058 ] } },
{ "type": "Feature", "properties": { "address": "2544 E 83rd St, Chicago, IL 60617, United States", "name": "The New Look Restaurant - THE NEXT LEVEL", "rating": 4.2, "n_ratings": 464, "city": "Chicago", "black_owned": true }, "geometry": { "type": "Point", "coordinates": [ -87.5618713, 41.7447023 ] } },
{ "type": "Feature", "properties": { "address": "3901 S Michigan Ave, Chicago, IL 60653, United States", "name": "Pearl's Place Restaurant", "rating": 4.1, "n_ratings": 3168, "city": "Chicago", "black_owned": true }, "geometry": { "type": "Point", "coordinates": [ -87.622892, 41.8236527 ] } },
{ "type": "Feature", "properties": { "address": "3615 W Roosevelt Rd, Chicago, IL 60624, United States", "name": "Soulé", "rating": 4.1, "n_ratings": 1474, "city": "Chicago", "black_owned": true }, "geometry": { "type": "Point", "coordinates": [ -87.7161977, 41.8661418 ] } },
{ "type": "Feature", "properties": { "address": "8040 S Ashland Ave, Chicago, IL 60620, United States", "name": "Chicago Food On The Run", "rating": 4.1, "n_ratings": 289, "city": "Chicago", "black_owned": true }, "geometry": { "type": "Point", "coordinates": [ -87.6635629, 41.7473705 ] } },
{ "type": "Feature", "properties": { "address": "1800 W 87th St, Chicago, IL 60620, United States", "name": "Jamison's Soul Food", "rating": 3.4, "n_ratings": 846, "city": "Chicago", "black_owned": true }, "geometry": { "type": "Point", "coordinates": [ -87.6684032, 41.735968199999988 ] } },
{ "type": "Feature", "properties": { "address": "9920 S Western Ave, Chicago, IL 60643, United States", "name": "Ain't She Sweet Cafe", "rating": 4.5, "n_ratings": 699, "city": "Chicago", "black_owned": true }, "geometry": { "type": "Point", "coordinates": [ -87.6820276, 41.713246100000013 ] } },
{ "type": "Feature", "properties": { "address": "9746 S Vincennes Ave, Chicago, IL 60643, United States", "name": "Di Dis Jamaican Kitchen LLC", "rating": 5.0, "n_ratings": 1, "city": "Chicago", "black_owned": true }, "geometry": { "type": "Point", "coordinates": [ -87.6526426, 41.7166778 ] } },
{ "type": "Feature", "properties": { "address": "10210 S Vincennes Ave, Chicago, IL 60643, United States", "name": "Surfs Up Beverly", "rating": 5.0, "n_ratings": 11, "city": "Chicago", "black_owned": true }, "geometry": { "type": "Point", "coordinates": [ -87.6558202, 41.7083367 ] } },
{ "type": "Feature", "properties": { "address": "11028 S Halsted St, Chicago, IL 60628, United States", "name": "Rubys Soulfood Express", "rating": 3.1, "n_ratings": 145, "city": "Chicago", "black_owned": true }, "geometry": { "type": "Point", "coordinates": [ -87.6426627, 41.6933458 ] } },
{ "type": "Feature", "properties": { "address": "10745 S Eggleston Ave, Chicago, IL 60628, United States", "name": "TheFruenz Restaurant", "rating": 4.3, "n_ratings": 4, "city": "Chicago", "black_owned": true }, "geometry": { "type": "Point", "coordinates": [ -87.6338714, 41.6984171 ] } },
{ "type": "Feature", "properties": { "address": "756 E 111th St, Chicago, IL 60628, United States", "name": "Lexington Betty Smokehouse", "rating": 4.2, "n_ratings": 262, "city": "Chicago", "black_owned": true }, "geometry": { "type": "Point", "coordinates": [ -87.6025382, 41.6932145 ] } },
{ "type": "Feature", "properties": { "address": "9454 S Cottage Grove Ave, Chicago, IL 60619, United States", "name": "Real Good Azz Sandwiches", "rating": 2.8, "n_ratings": 4, "city": "Chicago", "black_owned": true }, "geometry": { "type": "Point", "coordinates": [ -87.604829, 41.7223181 ] } },
{ "type": "Feature", "properties": { "address": "1510 E Harper Ct, Chicago, IL 60615, United States", "name": "Ja' Grill Hyde Park", "rating": 4.1, "n_ratings": 1318, "city": "Chicago", "black_owned": true }, "geometry": { "type": "Point", "coordinates": [ -87.5886243, 41.800492899999988 ] } },
{ "type": "Feature", "properties": { "address": "2955 E 87th St, Chicago, IL 60617, United States", "name": "T and K African Kitchen", "rating": 3.8, "n_ratings": 54, "city": "Chicago", "black_owned": true }, "geometry": { "type": "Point", "coordinates": [ -87.5520186, 41.7372314 ] } },
{ "type": "Feature", "properties": { "address": "8734 S Stony Is Ave, Chicago, IL 60617, United States", "name": "S2 City Grill & Daquiri Bar", "rating": 4.2, "n_ratings": 853, "city": "Chicago", "black_owned": true }, "geometry": { "type": "Point", "coordinates": [ -87.5859604, 41.7354923 ] } },
{ "type": "Feature", "properties": { "address": "1931 W Chicago Ave, Chicago, IL 60622, United States", "name": "Soule To Soule", "rating": 0.0, "n_ratings": 0, "city": "Chicago", "black_owned": true }, "geometry": { "type": "Point", "coordinates": [ -87.6758239, 41.8957996 ] } },
{ "type": "Feature", "properties": { "address": "2749 W 79th St, Chicago, IL 60652, United States", "name": "Katie Lee's", "rating": 0.0, "n_ratings": 0, "city": "Chicago", "black_owned": true }, "geometry": { "type": "Point", "coordinates": [ -87.6921668, 41.7497877 ] } },
{ "type": "Feature", "properties": { "address": "2632 W 71st St, Chicago, IL 60629, United States", "name": "Granny-B's", "rating": 4.2, "n_ratings": 224, "city": "Chicago", "black_owned": true }, "geometry": { "type": "Point", "coordinates": [ -87.6895392, 41.7647079 ] } },
{ "type": "Feature", "properties": { "address": "6723 S Bell Ave, Chicago, IL 60636, United States", "name": "Soul ful touch", "rating": 0.0, "n_ratings": 0, "city": "Chicago", "black_owned": true }, "geometry": { "type": "Point", "coordinates": [ -87.6794825, 41.77129 ] } },
{ "type": "Feature", "properties": { "address": "7550 S Halsted St, Chicago, IL 60620, United States", "name": "Humble Eats", "rating": 4.3, "n_ratings": 114, "city": "Chicago", "black_owned": true }, "geometry": { "type": "Point", "coordinates": [ -87.6444273, 41.756329099999988 ] } },
{ "type": "Feature", "properties": { "address": "8051 S Halsted St unit 2, Chicago, IL 60620, United States", "name": "Cousin Kev's", "rating": 5.0, "n_ratings": 2, "city": "Chicago", "black_owned": true }, "geometry": { "type": "Point", "coordinates": [ -87.6437186, 41.7473566 ] } },
{ "type": "Feature", "properties": { "address": "7735 S Ada St, Chicago, IL 60620, United States", "name": "Londay's Love", "rating": 4.5, "n_ratings": 2, "city": "Chicago", "black_owned": true }, "geometry": { "type": "Point", "coordinates": [ -87.6567335, 41.7530824 ] } },
{ "type": "Feature", "properties": { "address": "7354 S Ashland Ave, Chicago, IL 60636, United States", "name": "FIFTY-ONE 50 FUSION", "rating": 4.1, "n_ratings": 47, "city": "Chicago", "black_owned": true }, "geometry": { "type": "Point", "coordinates": [ -87.663989, 41.7596991 ] } },
{ "type": "Feature", "properties": { "address": "641 E 75th St, Chicago, IL 60619, United States", "name": "Flammin Restaurant & Co", "rating": 4.3, "n_ratings": 258, "city": "Chicago", "black_owned": true }, "geometry": { "type": "Point", "coordinates": [ -87.6087046, 41.7583919 ] } },
{ "type": "Feature", "properties": { "address": "403 E 71st St, Chicago, IL 60619, United States", "name": "Roy's Soul Food", "rating": 4.4, "n_ratings": 603, "city": "Chicago", "black_owned": true }, "geometry": { "type": "Point", "coordinates": [ -87.615, 41.7655556 ] } },
{ "type": "Feature", "properties": { "address": "7518 S Cottage Grove Ave, Chicago, IL 60619, United States", "name": "ROYAL BBQ & JERK INC", "rating": 4.5, "n_ratings": 27, "city": "Chicago", "black_owned": true }, "geometry": { "type": "Point", "coordinates": [ -87.6056637, 41.757979 ] } },
{ "type": "Feature", "properties": { "address": "727 E 87th St, Chicago, IL 60619, United States", "name": "St Rest No 2 Country Kitchen", "rating": 4.0, "n_ratings": 256, "city": "Chicago", "black_owned": true }, "geometry": { "type": "Point", "coordinates": [ -87.606177100000011, 41.7365362 ] } },
{ "type": "Feature", "properties": { "address": "8200 S St Lawrence Ave, Chicago, IL 60619, United States", "name": "City Boyz BBQ", "rating": 5.0, "n_ratings": 4, "city": "Chicago", "black_owned": true }, "geometry": { "type": "Point", "coordinates": [ -87.6102534, 41.7455588 ] } },
{ "type": "Feature", "properties": { "address": "1945 E 79th St, Chicago, IL 60649, United States", "name": "Dee-Dee's Kitchen", "rating": 4.0, "n_ratings": 20, "city": "Chicago", "black_owned": true }, "geometry": { "type": "Point", "coordinates": [ -87.5766376, 41.7512193 ] } },
{ "type": "Feature", "properties": { "address": "810 E 75th St, Chicago, IL 60619, United States", "name": "D & V's Soul Food", "rating": 4.0, "n_ratings": 1, "city": "Chicago", "black_owned": true }, "geometry": { "type": "Point", "coordinates": [ -87.6048712, 41.7587158 ] } },
{ "type": "Feature", "properties": { "address": "306 E 75th St Suite B, Chicago, IL 60619, United States", "name": "Authentic Cooking Soul Food Kitchen", "rating": 4.5, "n_ratings": 33, "city": "Chicago", "black_owned": true }, "geometry": { "type": "Point", "coordinates": [ -87.6179327, 41.7584498 ] } },
{ "type": "Feature", "properties": { "address": "2343 E 72nd St, Chicago, IL 60649, United States", "name": "3 Angels Soul Food Llc", "rating": 5.0, "n_ratings": 4, "city": "Chicago", "black_owned": true }, "geometry": { "type": "Point", "coordinates": [ -87.567351, 41.7643377 ] } },
{ "type": "Feature", "properties": { "address": "718 E 75th St, Chicago, IL 60619, United States", "name": "Snac Happy Restaurant", "rating": 1.0, "n_ratings": 1, "city": "Chicago", "black_owned": true }, "geometry": { "type": "Point", "coordinates": [ -87.6069843, 41.758765 ] } },
{ "type": "Feature", "properties": { "address": "7167 S Exchange Ave, Chicago, IL 60649, United States", "name": "Majani Soulful Vegan Cuisine", "rating": 4.6, "n_ratings": 910, "city": "Chicago", "black_owned": true }, "geometry": { "type": "Point", "coordinates": [ -87.5649604, 41.7647401 ] } },
{ "type": "Feature", "properties": { "address": "East on, 7112 S Yates Blvd #71st, Chicago, IL 60649, United States", "name": "Mary Jane Cafe", "rating": 4.6, "n_ratings": 17, "city": "Chicago", "black_owned": true }, "geometry": { "type": "Point", "coordinates": [ -87.566877, 41.765799 ] } },
{ "type": "Feature", "properties": { "address": "7201 S Exchange Ave, Chicago, IL 60649, United States", "name": "Chef Sara's Cafe", "rating": 4.7, "n_ratings": 239, "city": "Chicago", "black_owned": true }, "geometry": { "type": "Point", "coordinates": [ -87.5647644, 41.764433800000013 ] } },
{ "type": "Feature", "properties": { "address": "1415 N Wood St, Chicago, IL 60622, United States", "name": "Ina Mae", "rating": 4.2, "n_ratings": 953, "city": "Chicago", "black_owned": true }, "geometry": { "type": "Point", "coordinates": [ -87.6722353, 41.9076442 ] } },
{ "type": "Feature", "properties": { "address": "6978 W North Ave, Chicago, IL 60707, United States", "name": "6978 Soul Food", "rating": 3.9, "n_ratings": 1291, "city": "Chicago", "black_owned": true }, "geometry": { "type": "Point", "coordinates": [ -87.8000528, 41.9090946 ] } },
{ "type": "Feature", "properties": { "address": "5721 W Division St, Chicago, IL 60651, United States", "name": "Flavor's Southern Cooking", "rating": 4.4, "n_ratings": 182, "city": "Chicago", "black_owned": true }, "geometry": { "type": "Point", "coordinates": [ -87.7689416, 41.9019974 ] } },
{ "type": "Feature", "properties": { "address": "S Whipple St, Chicago, IL 60629, United States", "name": "Kay's To Go Kitchen", "rating": 0.0, "n_ratings": 0, "city": "Chicago", "black_owned": true }, "geometry": { "type": "Point", "coordinates": [ -87.6992742, 41.7770906 ] } },
{ "type": "Feature", "properties": { "address": "1149 W 69th St, Chicago, IL 60621, United States", "name": "Amber’s Food Cafe", "rating": 3.8, "n_ratings": 42, "city": "Chicago", "black_owned": true }, "geometry": { "type": "Point", "coordinates": [ -87.6537343, 41.7684955 ] } },
{ "type": "Feature", "properties": { "address": "1624 W 59th St, Chicago, IL 60636, United States", "name": "Greedy Catt Drive In", "rating": 5.0, "n_ratings": 5, "city": "Chicago", "black_owned": true }, "geometry": { "type": "Point", "coordinates": [ -87.6657691, 41.7867907 ] } },
{ "type": "Feature", "properties": { "address": "758 W 78th St, Chicago, IL 60620, United States", "name": "Cutie Pies Kitchen", "rating": 4.2, "n_ratings": 80, "city": "Chicago", "black_owned": true }, "geometry": { "type": "Point", "coordinates": [ -87.643776699999989, 41.7525539 ] } },
{ "type": "Feature", "properties": { "address": "56 E Pershing Rd, Chicago, IL 60653, United States", "name": "Truth Restaurant", "rating": 4.1, "n_ratings": 1768, "city": "Chicago", "black_owned": true }, "geometry": { "type": "Point", "coordinates": [ -87.6242329, 41.8238499 ] } },
{ "type": "Feature", "properties": { "address": "1429 E Hyde Park Blvd, Chicago, IL 60615, United States", "name": "Love & Light Cafe", "rating": 4.1, "n_ratings": 51, "city": "Chicago", "black_owned": true }, "geometry": { "type": "Point", "coordinates": [ -87.590362500000012, 41.8022815 ] } },
{ "type": "Feature", "properties": { "address": "6767 S South Chicago Ave, Chicago, IL 60637, United States", "name": "Wings Greens and Things", "rating": 4.6, "n_ratings": 87, "city": "Chicago", "black_owned": true }, "geometry": { "type": "Point", "coordinates": [ -87.6132623, 41.7717138 ] } },
{ "type": "Feature", "properties": { "address": "6453 S Cottage Grove Ave, Chicago, IL 60637, United States", "name": "SHINE VILLA DA SECRET KITCHEN", "rating": 5.0, "n_ratings": 2, "city": "Chicago", "black_owned": true }, "geometry": { "type": "Point", "coordinates": [ -87.6054848, 41.7770876 ] } },
{ "type": "Feature", "properties": { "address": "6717 S Halsted St, Chicago, IL 60621, United States", "name": "Taylormade Que", "rating": 3.8, "n_ratings": 394, "city": "Chicago", "black_owned": true }, "geometry": { "type": "Point", "coordinates": [ -87.6444224, 41.7718751 ] } },
{ "type": "Feature", "properties": { "address": "1462 E 53rd St, Chicago, IL 60615, United States", "name": "Virtue Restaurant", "rating": 4.6, "n_ratings": 1380, "city": "Chicago", "black_owned": true }, "geometry": { "type": "Point", "coordinates": [ -87.589251499999989, 41.7996669 ] } },
{ "type": "Feature", "properties": { "address": "1644 E 53rd St, Chicago, IL 60615, United States", "name": "14 Parish", "rating": 4.3, "n_ratings": 912, "city": "Chicago", "black_owned": true }, "geometry": { "type": "Point", "coordinates": [ -87.584836, 41.799732 ] } },
{ "type": "Feature", "properties": { "address": "6257 S Cottage Grove Ave, Chicago, IL 60637, United States", "name": "Daley's Restaurant", "rating": 4.3, "n_ratings": 2471, "city": "Chicago", "black_owned": true }, "geometry": { "type": "Point", "coordinates": [ -87.6056668, 41.780612 ] } },
{ "type": "Feature", "properties": { "address": "235 E 51st St, Chicago, IL 60615, United States", "name": "Skidoe's", "rating": 4.3, "n_ratings": 105, "city": "Chicago", "black_owned": true }, "geometry": { "type": "Point", "coordinates": [ -87.6198138, 41.8019471 ] } },
{ "type": "Feature", "properties": { "address": "203 E 75th St, Chicago, IL 60619, United States", "name": "Soul Veg City", "rating": 4.4, "n_ratings": 1906, "city": "Chicago", "black_owned": true }, "geometry": { "type": "Point", "coordinates": [ -87.6196992, 41.7582154 ] } },
{ "type": "Feature", "properties": { "address": "7114 S Yates Blvd, Chicago, IL 60649, United States", "name": "Southshore BBQ & Jerk", "rating": 3.4, "n_ratings": 206, "city": "Chicago", "black_owned": true }, "geometry": { "type": "Point", "coordinates": [ -87.5666885, 41.7657405 ] } },
{ "type": "Feature", "properties": { "address": "2422 W Roosevelt Rd, Chicago, IL 60608, United States", "name": "Victoria's Sweets & Eats Catering and Events", "rating": 3.7, "n_ratings": 3, "city": "Chicago", "black_owned": true }, "geometry": { "type": "Point", "coordinates": [ -87.6870186, 41.8668172 ] } },
{ "type": "Feature", "properties": { "address": "3057 N Rockwell St, Chicago, IL 60618, United States", "name": "Soul & Smoke - Avondale at Rockwell on the River", "rating": 4.1, "n_ratings": 85, "city": "Chicago", "black_owned": true }, "geometry": { "type": "Point", "coordinates": [ -87.6915513, 41.9375149 ] } },
{ "type": "Feature", "properties": { "address": "5412 W Madison St, Chicago, IL 60644, United States", "name": "MacArthur's Restaurant", "rating": 4.1, "n_ratings": 2702, "city": "Chicago", "black_owned": true }, "geometry": { "type": "Point", "coordinates": [ -87.760753100000017, 41.880544 ] } },
{ "type": "Feature", "properties": { "address": "2136 S Pulaski Rd, Chicago, IL 60623, United States", "name": "Ma Dear’s Kitchen", "rating": 5.0, "n_ratings": 12, "city": "Chicago", "black_owned": true }, "geometry": { "type": "Point", "coordinates": [ -87.7249144, 41.852421 ] } },
{ "type": "Feature", "properties": { "address": "2537 S Wabash Ave, Chicago, IL 60616, United States", "name": "Exceptional Flavour", "rating": 3.6, "n_ratings": 12, "city": "Chicago", "black_owned": true }, "geometry": { "type": "Point", "coordinates": [ -87.624902, 41.8464008 ] } },
{ "type": "Feature", "properties": { "address": "545 W 31st St, Chicago, IL 60616, United States", "name": "Cook It Mama Cafe", "rating": 4.7, "n_ratings": 42, "city": "Chicago", "black_owned": true }, "geometry": { "type": "Point", "coordinates": [ -87.6407221, 41.8380094 ] } },
{ "type": "Feature", "properties": { "address": "225 E 47th St, Chicago, IL 60653, United States", "name": "Dirty Tiff's Cafe", "rating": 4.4, "n_ratings": 173, "city": "Chicago", "black_owned": true }, "geometry": { "type": "Point", "coordinates": [ -87.6200354, 41.8091095 ] } },
{ "type": "Feature", "properties": { "address": "4248 S Cottage Grove Ave, Chicago, IL 60653, United States", "name": "Cleo's Southern Cuisine", "rating": 4.3, "n_ratings": 307, "city": "Chicago", "black_owned": true }, "geometry": { "type": "Point", "coordinates": [ -87.6070765, 41.8171113 ] } },
{ "type": "Feature", "properties": { "address": "3947 S King Dr, Chicago, IL 60653, United States", "name": "Chicago's Home of Chicken & Waffles", "rating": 4.1, "n_ratings": 3534, "city": "Chicago", "black_owned": true }, "geometry": { "type": "Point", "coordinates": [ -87.6165863, 41.822466899999988 ] } },
{ "type": "Feature", "properties": { "address": "1001 E 43rd St, Chicago, IL 60653, United States", "name": "Norman's Bistro", "rating": 4.2, "n_ratings": 1037, "city": "Chicago", "black_owned": true }, "geometry": { "type": "Point", "coordinates": [ -87.6016437, 41.8167265 ] } },
{ "type": "Feature", "properties": { "address": "810 E 43rd St, Chicago, IL 60653, United States", "name": "Thee Beauty Bar", "rating": 4.5, "n_ratings": 224, "city": "Chicago", "black_owned": true }, "geometry": { "type": "Point", "coordinates": [ -87.6062594, 41.8169362 ] } },
{ "type": "Feature", "properties": { "address": "3511 S King Dr, Chicago, IL 60653, United States", "name": "Yassa African Restaurant", "rating": 4.4, "n_ratings": 1282, "city": "Chicago", "black_owned": true }, "geometry": { "type": "Point", "coordinates": [ -87.6166937, 41.8307365 ] } },
{ "type": "Feature", "properties": { "address": "17 W 35th St, Chicago, IL 60616, United States", "name": "Jerk & Soul Food", "rating": 3.8, "n_ratings": 123, "city": "Chicago", "black_owned": true }, "geometry": { "type": "Point", "coordinates": [ -87.6276692, 41.8308427 ] } },
{ "type": "Feature", "properties": { "address": "219 E 47th St, Chicago, IL 60653, United States", "name": "The G Spot Diner", "rating": 4.7, "n_ratings": 39, "city": "Chicago", "black_owned": true }, "geometry": { "type": "Point", "coordinates": [ -87.6203152, 41.8091557 ] } },
{ "type": "Feature", "properties": { "address": "737 E 47th St, Chicago, IL 60653, United States", "name": "Uncle Remus SFC - 47th Street", "rating": 3.7, "n_ratings": 661, "city": "Chicago", "black_owned": true }, "geometry": { "type": "Point", "coordinates": [ -87.6074203, 41.8094086 ] } },
{ "type": "Feature", "properties": { "address": "1126 E 47th St, Chicago, IL 60653, United States", "name": "Gorée Cuisine", "rating": 4.8, "n_ratings": 771, "city": "Chicago", "black_owned": true }, "geometry": { "type": "Point", "coordinates": [ -87.598174, 41.8097585 ] } },
{ "type": "Feature", "properties": { "address": "5118 W Madison St, Chicago, IL 60644, United States", "name": "Tee's Snack Shop", "rating": 4.0, "n_ratings": 11, "city": "Chicago", "black_owned": true }, "geometry": { "type": "Point", "coordinates": [ -87.7534877, 41.8805689 ] } },
{ "type": "Feature", "properties": { "address": "556 N Cicero Ave, Chicago, IL 60644, United States", "name": "3 KINGS JERK & SOUL", "rating": 3.9, "n_ratings": 128, "city": "Chicago", "black_owned": true }, "geometry": { "type": "Point", "coordinates": [ -87.745966, 41.8912096 ] } },
{ "type": "Feature", "properties": { "address": "520 S Western Ave, Chicago, IL 60612, United States", "name": "Johnna's Cafe", "rating": 4.2, "n_ratings": 119, "city": "Chicago", "black_owned": true }, "geometry": { "type": "Point", "coordinates": [ -87.6866091, 41.8743156 ] } },
{ "type": "Feature", "properties": { "address": "1339 W Taylor St, Chicago, IL 60607, United States", "name": "Sweet Maple Cafe", "rating": 4.5, "n_ratings": 1442, "city": "Chicago", "black_owned": true }, "geometry": { "type": "Point", "coordinates": [ -87.660738099999989, 41.8692561 ] } },
{ "type": "Feature", "properties": { "address": "3944 W Chicago Ave, Chicago, IL 60651, United States", "name": "Ruby's Fish & Chicken", "rating": 3.4, "n_ratings": 97, "city": "Chicago", "black_owned": true }, "geometry": { "type": "Point", "coordinates": [ -87.7254199, 41.8954949 ] } },
{ "type": "Feature", "properties": { "address": "4000 W Roosevelt Rd, Chicago, IL 60624, United States", "name": "3 Kings Jerk & Soul", "rating": 5.0, "n_ratings": 1, "city": "Chicago", "black_owned": true }, "geometry": { "type": "Point", "coordinates": [ -87.7256117, 41.8665354 ] } },
{ "type": "Feature", "properties": { "address": "611 S California Ave, Chicago, IL 60612, United States", "name": "Sugar Baby's Cafe", "rating": 3.3, "n_ratings": 15, "city": "Chicago", "black_owned": true }, "geometry": { "type": "Point", "coordinates": [ -87.6958702, 41.8734824 ] } },
{ "type": "Feature", "properties": { "address": "2253 W Taylor St, Chicago, IL 60612, United States", "name": "Jerky Jerk", "rating": 4.4, "n_ratings": 485, "city": "Chicago", "black_owned": true }, "geometry": { "type": "Point", "coordinates": [ -87.6833452, 41.8688745 ] } },
{ "type": "Feature", "properties": { "address": "3055 W Jackson Blvd, Chicago, IL 60612, United States", "name": "SAMS SOUL FOOD", "rating": 1.0, "n_ratings": 1, "city": "Chicago", "black_owned": true }, "geometry": { "type": "Point", "coordinates": [ -87.7032308, 41.8771252 ] } },
{ "type": "Feature", "properties": { "address": "1141 S Western Ave, Chicago, IL 60612, United States", "name": "The Wrap & Roll Cafe", "rating": 4.2, "n_ratings": 103, "city": "Chicago", "black_owned": true }, "geometry": { "type": "Point", "coordinates": [ -87.6858581, 41.8672125 ] } },
{ "type": "Feature", "properties": { "address": "1419 W Taylor St, Chicago, IL 60607, United States", "name": "George's Chicken & Shrimp", "rating": 4.9, "n_ratings": 8, "city": "Chicago", "black_owned": true }, "geometry": { "type": "Point", "coordinates": [ -87.662468, 41.8690708 ] } },
{ "type": "Feature", "properties": { "address": "2216 S Michigan Ave, Chicago, IL 60616, United States", "name": "Jerk Villa Bar & Grill", "rating": 3.4, "n_ratings": 1391, "city": "Chicago", "black_owned": true }, "geometry": { "type": "Point", "coordinates": [ -87.6239413, 41.8524093 ] } },
{ "type": "Feature", "properties": { "address": "2115 S State St, Chicago, IL 60616, United States", "name": "Bureau Bar and Restaurant", "rating": 3.5, "n_ratings": 632, "city": "Chicago", "black_owned": true }, "geometry": { "type": "Point", "coordinates": [ -87.6268692, 41.8537198 ] } },
{ "type": "Feature", "properties": { "address": "5633 N Ashland Ave, Chicago, IL 60660, United States", "name": "Bettie Lou’s", "rating": 4.7, "n_ratings": 113, "city": "Chicago", "black_owned": true }, "geometry": { "type": "Point", "coordinates": [ -87.6696527, 41.9845018 ] } },
{ "type": "Feature", "properties": { "address": "2311 W Howard St, Chicago, IL 60645, United States", "name": "Kizin Creole Restaurant", "rating": 4.1, "n_ratings": 308, "city": "Chicago", "black_owned": true }, "geometry": { "type": "Point", "coordinates": [ -87.6882103, 42.0193275 ] } },
{ "type": "Feature", "properties": { "address": "5847 W Chicago Ave, Chicago, IL 60651, United States", "name": "Brown's Soul Food", "rating": 4.5, "n_ratings": 40, "city": "Chicago", "black_owned": true }, "geometry": { "type": "Point", "coordinates": [ -87.7719622, 41.894658199999988 ] } },
{ "type": "Feature", "properties": { "address": "5419 W North Ave, Chicago, IL 60639, United States", "name": "Vegan World Cafe", "rating": 4.6, "n_ratings": 113, "city": "Chicago", "black_owned": true }, "geometry": { "type": "Point", "coordinates": [ -87.7614765, 41.909200899999988 ] } },
{ "type": "Feature", "properties": { "address": "5611 W Madison St, Chicago, IL 60644, United States", "name": "Uncle Remus SFC - Central & Madison", "rating": 4.0, "n_ratings": 1202, "city": "Chicago", "black_owned": true }, "geometry": { "type": "Point", "coordinates": [ -87.7653441, 41.8799666 ] } },
{ "type": "Feature", "properties": { "address": "5808 W North Ave, Chicago, IL 60639, United States", "name": "Finger Licking", "rating": 4.4, "n_ratings": 11, "city": "Chicago", "black_owned": true }, "geometry": { "type": "Point", "coordinates": [ -87.7707446, 41.9097021 ] } },
{ "type": "Feature", "properties": { "address": "Chicago, IL 60651, United States", "name": "Ruby's Soul Food", "rating": 2.8, "n_ratings": 35, "city": "Chicago", "black_owned": true }, "geometry": { "type": "Point", "coordinates": [ -87.7667529, 41.8951505 ] } },
{ "type": "Feature", "properties": { "address": "4827 W Chicago Ave, Chicago, IL 60651, United States", "name": "Neals Soul Food", "rating": 0.0, "n_ratings": 0, "city": "Chicago", "black_owned": true }, "geometry": { "type": "Point", "coordinates": [ -87.7469305, 41.894838 ] } },
{ "type": "Feature", "properties": { "address": "2803 W Chicago Ave, Chicago, IL 60622, United States", "name": "Feed", "rating": 4.3, "n_ratings": 504, "city": "Chicago", "black_owned": true }, "geometry": { "type": "Point", "coordinates": [ -87.6969153, 41.8955276 ] } },
{ "type": "Feature", "properties": { "address": "3506 W Chicago Ave, Chicago, IL 60651, United States", "name": "Turkey Chop Gourmet Grill", "rating": 4.2, "n_ratings": 497, "city": "Chicago", "black_owned": true }, "geometry": { "type": "Point", "coordinates": [ -87.7143471, 41.8956066 ] } },
{ "type": "Feature", "properties": { "address": "3220 W Grand Ave, Chicago, IL 60651, United States", "name": "Kitchen 1217 (inside Cloud Kitchen)", "rating": 5.0, "n_ratings": 5, "city": "Chicago", "black_owned": true }, "geometry": { "type": "Point", "coordinates": [ -87.7073206, 41.8989343 ] } },
{ "type": "Feature", "properties": { "address": "2806 W Lake St, Chicago, IL 60612, United States", "name": "Creed On LAKE", "rating": 4.3, "n_ratings": 182, "city": "Chicago", "black_owned": true }, "geometry": { "type": "Point", "coordinates": [ -87.6966926, 41.8845173 ] } },
{ "type": "Feature", "properties": { "address": "1160 W Grand Ave, Chicago, IL 60642, United States", "name": "Jordyn’s Soul Cafe", "rating": 3.9, "n_ratings": 194, "city": "Chicago", "black_owned": true }, "geometry": { "type": "Point", "coordinates": [ -87.6569741, 41.8913093 ] } },
{ "type": "Feature", "properties": { "address": "222 N Canal St, Chicago, IL 60606, United States", "name": "Taste 222", "rating": 4.6, "n_ratings": 259, "city": "Chicago", "black_owned": true }, "geometry": { "type": "Point", "coordinates": [ -87.6400263, 41.8863608 ] } },
{ "type": "Feature", "properties": { "address": "211 W Walton St, Chicago, IL 60610, United States", "name": "BULSHO restaurant", "rating": 4.7, "n_ratings": 148, "city": "Chicago", "black_owned": true }, "geometry": { "type": "Point", "coordinates": [ -87.6349347, 41.8996544 ] } },
{ "type": "Feature", "properties": { "address": "210 N Carpenter St UNIT 140, Chicago, IL 60607, United States", "name": "Sundrip", "rating": 4.9, "n_ratings": 288, "city": "Chicago", "black_owned": true }, "geometry": { "type": "Point", "coordinates": [ -87.6534482, 41.8858731 ] } },
{ "type": "Feature", "properties": { "address": "850 W Superior St, Chicago, IL 60642, United States", "name": "Cafe Trinidad To Go", "rating": 3.8, "n_ratings": 42, "city": "Chicago", "black_owned": true }, "geometry": { "type": "Point", "coordinates": [ -87.649649, 41.895623099999987 ] } },
{ "type": "Feature", "properties": { "address": "161 N Jefferson St, Chicago, IL 60661, United States", "name": "Wishbone", "rating": 4.4, "n_ratings": 2005, "city": "Chicago", "black_owned": true }, "geometry": { "type": "Point", "coordinates": [ -87.642497, 41.8850397 ] } },
{ "type": "Feature", "properties": { "address": "931 N Orleans St, Chicago, IL 60610, United States", "name": "Mogadishu Restaurant", "rating": 4.7, "n_ratings": 391, "city": "Chicago", "black_owned": true }, "geometry": { "type": "Point", "coordinates": [ -87.6369815, 41.8998386 ] } },
{ "type": "Feature", "properties": { "address": "33 S Wabash Ave, Chicago, IL 60603, United States", "name": "Goddess and the Baker, Wabash", "rating": 4.4, "n_ratings": 2171, "city": "Chicago", "black_owned": true }, "geometry": { "type": "Point", "coordinates": [ -87.6256565, 41.8813079 ] } },
{ "type": "Feature", "properties": { "address": "1106 S Clinton St, Chicago, IL 60607, United States", "name": "Chick-fil-A South Loop", "rating": 3.7, "n_ratings": 1030, "city": "Chicago", "black_owned": true }, "geometry": { "type": "Point", "coordinates": [ -87.640994, 41.868889200000012 ] } },
{ "type": "Feature", "properties": { "address": "1061 W Madison St, Chicago, IL 60607, United States", "name": "Black Barrel Tavern - WEST LOOP", "rating": 4.5, "n_ratings": 477, "city": "Chicago", "black_owned": true }, "geometry": { "type": "Point", "coordinates": [ -87.6543981, 41.881562 ] } },
{ "type": "Feature", "properties": { "address": "225 N La Salle St, Chicago, IL 60601, United States", "name": "Goddess and the Baker, Riverfront", "rating": 4.3, "n_ratings": 1075, "city": "Chicago", "black_owned": true }, "geometry": { "type": "Point", "coordinates": [ -87.6321964, 41.8866513 ] } },
{ "type": "Feature", "properties": { "address": "565 W Jackson Blvd, Chicago, IL 60661, United States", "name": "Lou Mitchell's", "rating": 4.6, "n_ratings": 3349, "city": "Chicago", "black_owned": true }, "geometry": { "type": "Point", "coordinates": [ -87.6421428, 41.8779176 ] } },
{ "type": "Feature", "properties": { "address": "3435 N Harlem Ave, Chicago, IL 60634, United States", "name": "TAS Eatery", "rating": 4.9, "n_ratings": 17, "city": "Chicago", "black_owned": true }, "geometry": { "type": "Point", "coordinates": [ -87.8065891, 41.9426478 ] } },
{ "type": "Feature", "properties": { "address": "7102 W Grand Ave, Chicago, IL 60707, United States", "name": "Carby Eats", "rating": 5.0, "n_ratings": 46, "city": "Chicago", "black_owned": true }, "geometry": { "type": "Point", "coordinates": [ -87.802823, 41.923690099999988 ] } },
{ "type": "Feature", "properties": { "address": "6010 W Grand Ave, Chicago, IL 60639, United States", "name": "African Soul", "rating": 4.9, "n_ratings": 8, "city": "Chicago", "black_owned": true }, "geometry": { "type": "Point", "coordinates": [ -87.7762564, 41.9208979 ] } },
{ "type": "Feature", "properties": { "address": "3517 N Spaulding Ave, Chicago, IL 60618, United States", "name": "Enameled Grace", "rating": 0.0, "n_ratings": 0, "city": "Chicago", "black_owned": true }, "geometry": { "type": "Point", "coordinates": [ -87.7095432, 41.9455448 ] } },
{ "type": "Feature", "properties": { "address": "4258 W Division St, Chicago, IL 60651, United States", "name": "Sunday Soul Diner", "rating": 0.0, "n_ratings": 0, "city": "Chicago", "black_owned": true }, "geometry": { "type": "Point", "coordinates": [ -87.7335124, 41.9026657 ] } },
{ "type": "Feature", "properties": { "address": "4623 N Broadway, Chicago, IL 60640, United States", "name": "Iyanze Bar And Cafe", "rating": 3.8, "n_ratings": 454, "city": "Chicago", "black_owned": true }, "geometry": { "type": "Point", "coordinates": [ -87.6575728, 41.9661908 ] } },
{ "type": "Feature", "properties": { "address": "3655 N Western Ave, Chicago, IL 60618, United States", "name": "Reclaimed Bar & Restaurant", "rating": 4.6, "n_ratings": 267, "city": "Chicago", "black_owned": true }, "geometry": { "type": "Point", "coordinates": [ -87.6879932, 41.9483221 ] } },
{ "type": "Feature", "properties": { "address": "2925 W Irving Park Rd, Chicago, IL 60618, United States", "name": "Mima's Taste Of Cuba", "rating": 4.4, "n_ratings": 658, "city": "Chicago", "black_owned": true }, "geometry": { "type": "Point", "coordinates": [ -87.7017075, 41.9537291 ] } },
{ "type": "Feature", "properties": { "address": "3235 W Addison St Suite C, Chicago, IL 60618, United States", "name": "CheSa’s Bistro & Bar", "rating": 4.2, "n_ratings": 159, "city": "Chicago", "black_owned": true }, "geometry": { "type": "Point", "coordinates": [ -87.7094673, 41.9461042 ] } },
{ "type": "Feature", "properties": { "address": "2835 N Broadway, Chicago, IL 60614, United States", "name": "Comfort's African Cuisine", "rating": 4.9, "n_ratings": 13, "city": "Chicago", "black_owned": true }, "geometry": { "type": "Point", "coordinates": [ -87.6443982, 41.9338209 ] } },
{ "type": "Feature", "properties": { "address": "1308 N Elston Ave, Chicago, IL 60642, United States", "name": "1308 Chicago", "rating": 4.9, "n_ratings": 71, "city": "Chicago", "black_owned": true }, "geometry": { "type": "Point", "coordinates": [ -87.66013980000001, 41.9056954 ] } },
{ "type": "Feature", "properties": { "address": "2552 N Clark St, Chicago, IL 60614, United States", "name": "Frances' Brunchery", "rating": 4.4, "n_ratings": 715, "city": "Chicago", "black_owned": true }, "geometry": { "type": "Point", "coordinates": [ -87.642789, 41.929166 ] } },
{ "type": "Feature", "properties": { "address": "2748 N Lincoln Ave, Chicago, IL 60614, United States", "name": "Batter & Berries", "rating": 4.5, "n_ratings": 4145, "city": "Chicago", "black_owned": true }, "geometry": { "type": "Point", "coordinates": [ -87.657725, 41.9316 ] } },
{ "type": "Feature", "properties": { "address": "5200 N Elston Ave, Chicago, IL 60630, United States", "name": "Mother Cluckers Kitchen Chicago", "rating": 4.6, "n_ratings": 1110, "city": "Chicago", "black_owned": true }, "geometry": { "type": "Point", "coordinates": [ -87.752273, 41.9753928 ] } },
{ "type": "Feature", "properties": { "address": "5640 N Elston Ave, Chicago, IL 60646, United States", "name": "Yellow Rose Cafe", "rating": 4.7, "n_ratings": 397, "city": "Chicago", "black_owned": true }, "geometry": { "type": "Point", "coordinates": [ -87.7663288, 41.9838499 ] } },
{ "type": "Feature", "properties": { "address": "7210 N California Ave, Chicago, IL 60645, United States", "name": "QUEEN K's KITCHEN", "rating": 4.5, "n_ratings": 76, "city": "Chicago", "black_owned": true }, "geometry": { "type": "Point", "coordinates": [ -87.6999674, 42.0124163 ] } },
{ "type": "Feature", "properties": { "address": "3517 N Spaulding Ave, Chicago, IL 60618, United States", "name": "Southern Twang", "rating": 1.0, "n_ratings": 1, "city": "Chicago", "black_owned": true }, "geometry": { "type": "Point", "coordinates": [ -87.7095432, 41.9455448 ] } },
{ "type": "Feature", "properties": { "address": "3517 N Spaulding Ave, Chicago, IL 60618, United States", "name": "SnackChat-Networking Lounge Restaurant & Delivery", "rating": 0.0, "n_ratings": 0, "city": "Chicago", "black_owned": true }, "geometry": { "type": "Point", "coordinates": [ -87.7095432, 41.9455448 ] } },
{ "type": "Feature", "properties": { "address": "1027 W Wilson Ave, Chicago, IL 60640, United States", "name": "Osas African Restaurant - Nigerian cuisine", "rating": 4.0, "n_ratings": 196, "city": "Chicago", "black_owned": true }, "geometry": { "type": "Point", "coordinates": [ -87.6559435, 41.9652623 ] } },
{ "type": "Feature", "properties": { "address": "4701 N Kenmore Ave, Chicago, IL 60640, United States", "name": "B&Q Afro Root Cuisine", "rating": 4.3, "n_ratings": 200, "city": "Chicago", "black_owned": true }, "geometry": { "type": "Point", "coordinates": [ -87.6559815, 41.9673509 ] } },
{ "type": "Feature", "properties": { "address": "5347 N Clark St, Chicago, IL 60640, United States", "name": "Big Jones", "rating": 4.3, "n_ratings": 1407, "city": "Chicago", "black_owned": true }, "geometry": { "type": "Point", "coordinates": [ -87.668147499999989, 41.9794584 ] } },
{ "type": "Feature", "properties": { "address": "6232 N Broadway, Chicago, IL 60660, United States", "name": "Vee-Vee's African Restaurant", "rating": 3.5, "n_ratings": 147, "city": "Chicago", "black_owned": true }, "geometry": { "type": "Point", "coordinates": [ -87.660759, 41.9956207 ] } },
{ "type": "Feature", "properties": { "address": "5760 N Milwaukee Ave, Chicago, IL 60646, United States", "name": "Mom's Old Recipe", "rating": 4.5, "n_ratings": 554, "city": "Chicago", "black_owned": true }, "geometry": { "type": "Point", "coordinates": [ -87.7775767, 41.9861502 ] } },
{ "type": "Feature", "properties": { "address": "2407 W Lunt Ave, Chicago, IL 60645, United States", "name": "Yinkres Nigerian Restaurant", "rating": 4.2, "n_ratings": 35, "city": "Chicago", "black_owned": true }, "geometry": { "type": "Point", "coordinates": [ -87.6906306, 42.0085477 ] } },
{ "type": "Feature", "properties": { "address": "2049 W Howard St, Chicago, IL 60645, United States", "name": "Badou Senegalese Cuisine", "rating": 4.6, "n_ratings": 273, "city": "Chicago", "black_owned": true }, "geometry": { "type": "Point", "coordinates": [ -87.682361, 42.0192745 ] } },
{ "type": "Feature", "properties": { "address": "1636 W Howard St, Chicago, IL 60626, United States", "name": "Hungry Mama’s", "rating": 4.1, "n_ratings": 29, "city": "Chicago", "black_owned": true }, "geometry": { "type": "Point", "coordinates": [ -87.6722527, 42.0195182 ] } },
{ "type": "Feature", "properties": { "address": "7118 N Clark St, Chicago, IL 60626, United States", "name": "Qaato African Restaurant", "rating": 4.0, "n_ratings": 209, "city": "Chicago", "black_owned": true }, "geometry": { "type": "Point", "coordinates": [ -87.674671300000014, 42.0120325 ] } },
{ "type": "Feature", "properties": { "address": "7605 N Paulina St, Chicago, IL 60626, United States", "name": "Redz Belizean Restaurant", "rating": 4.5, "n_ratings": 323, "city": "Chicago", "black_owned": true }, "geometry": { "type": "Point", "coordinates": [ -87.6729535, 42.0196622 ] } },
{ "type": "Feature", "properties": { "address": "6635 N Clark St, Chicago, IL 60626, United States", "name": "Denden Restaurant", "rating": 4.6, "n_ratings": 185, "city": "Chicago", "black_owned": true }, "geometry": { "type": "Point", "coordinates": [ -87.6720598, 42.002738 ] } },
{ "type": "Feature", "properties": { "address": "1723 W Devon Ave Suite 60961, Chicago, IL 60660, United States", "name": "Gourmet Soul Food & Delightful Desserts", "rating": 4.9, "n_ratings": 11, "city": "Chicago", "black_owned": true }, "geometry": { "type": "Point", "coordinates": [ -87.6729899, 41.9976801 ] } },
{ "type": "Feature", "properties": { "address": "1127 W Thorndale Ave, Chicago, IL 60660, United States", "name": "Dynamic African Cuisine Inc", "rating": 4.0, "n_ratings": 87, "city": "Chicago", "black_owned": true }, "geometry": { "type": "Point", "coordinates": [ -87.6593841, 41.9896047 ] } }
]
}
