{
"type": "FeatureCollection",
"name": "detroit_non_black_owned",
"crs": { "type": "name", "properties": { "name": "urn:ogc:def:crs:OGC:1.3:CRS84" } },
"features": [
{ "type": "Feature", "properties": { "address": "330 Oakwood, Detroit, MI 48217, United States", "name": "Giovanni's Ristorante", "rating": 4.7, "n_ratings": 1076, "city": "Detroit", "black_owned": false }, "geometry": { "type": "Point", "coordinates": [ -83.1462245, 42.2901254 ] } },
{ "type": "Feature", "properties": { "address": "1310 Oakwood, Detroit, MI 48217, United States", "name": "La Salsa Mexican Cuisine", "rating": 4.4, "n_ratings": 635, "city": "Detroit", "black_owned": false }, "geometry": { "type": "Point", "coordinates": [ -83.1627273, 42.2856827 ] } },
{ "type": "Feature", "properties": { "address": "5900 Vernor Hwy, Detroit, MI 48209, United States", "name": "El Rancho Mexican Restaurant", "rating": 4.3, "n_ratings": 1066, "city": "Detroit", "black_owned": false }, "geometry": { "type": "Point", "coordinates": [ -83.105613, 42.316455 ] } },
{ "type": "Feature", "properties": { "address": "2709 S Fort St, Detroit, MI 48217, United States", "name": "Yoshi Hibachi Grille Southwest", "rating": 3.4, "n_ratings": 39, "city": "Detroit", "black_owned": false }, "geometry": { "type": "Point", "coordinates": [ -83.1604325, 42.2695708 ] } },
{ "type": "Feature", "properties": { "address": "Detroit, MI 48217, United States", "name": "Niambi Aida's", "rating": 0.0, "n_ratings": 0, "city": "Detroit", "black_owned": false }, "geometry": { "type": "Point", "coordinates": [ -83.1489048, 42.2749637 ] } },
{ "type": "Feature", "properties": { "address": "295 Oakwood, Detroit, MI 48217, United States", "name": "Gonellas Foods", "rating": 4.8, "n_ratings": 2265, "city": "Detroit", "black_owned": false }, "geometry": { "type": "Point", "coordinates": [ -83.14534470000001, 42.2900515 ] } },
{ "type": "Feature", "properties": { "address": "7056 Vernor Hwy, Detroit, MI 48209, United States", "name": "Los Altos Restaurant", "rating": 4.1, "n_ratings": 1319, "city": "Detroit", "black_owned": false }, "geometry": { "type": "Point", "coordinates": [ -83.1199894, 42.3146432 ] } },
{ "type": "Feature", "properties": { "address": "5426 Vernor Hwy, Detroit, MI 48209, United States", "name": "El Palenque Restaurant", "rating": 4.5, "n_ratings": 53, "city": "Detroit", "black_owned": false }, "geometry": { "type": "Point", "coordinates": [ -83.101251, 42.3182018 ] } },
{ "type": "Feature", "properties": { "address": "5414 Vernor Hwy, Detroit, MI 48209, United States", "name": "Colombo's Coney Island Restaurant", "rating": 3.9, "n_ratings": 853, "city": "Detroit", "black_owned": false }, "geometry": { "type": "Point", "coordinates": [ -83.1010759, 42.3182754 ] } },
{ "type": "Feature", "properties": { "address": "4627 Vernor Hwy, Detroit, MI 48209, United States", "name": "Antojitos El Catracho Restaurant", "rating": 4.2, "n_ratings": 313, "city": "Detroit", "black_owned": false }, "geometry": { "type": "Point", "coordinates": [ -83.0977661, 42.3190713 ] } },
{ "type": "Feature", "properties": { "address": "7208 W Fort St, Detroit, MI 48209, United States", "name": "Motz’s Burgers", "rating": 4.7, "n_ratings": 1011, "city": "Detroit", "black_owned": false }, "geometry": { "type": "Point", "coordinates": [ -83.1135476, 42.302609 ] } },
{ "type": "Feature", "properties": { "address": "7278 Dix St, Detroit, MI 48209, United States", "name": "Taqueria Mi Pueblo", "rating": 4.5, "n_ratings": 5100, "city": "Detroit", "black_owned": false }, "geometry": { "type": "Point", "coordinates": [ -83.124309200000013, 42.3171444 ] } },
{ "type": "Feature", "properties": { "address": "377 Schaefer Rd, Detroit, MI 48217, United States", "name": "Yemen’s hot food", "rating": 5.0, "n_ratings": 1, "city": "Detroit", "black_owned": false }, "geometry": { "type": "Point", "coordinates": [ -83.1650593, 42.2879159 ] } },
{ "type": "Feature", "properties": { "address": "1312 Springwells St, Detroit, MI 48209, United States", "name": "El Asador Steakhouse", "rating": 4.5, "n_ratings": 815, "city": "Detroit", "black_owned": false }, "geometry": { "type": "Point", "coordinates": [ -83.122115100000016, 42.304804 ] } },
{ "type": "Feature", "properties": { "address": "7930 Vernor Hwy, Detroit, MI 48209, United States", "name": "Panda", "rating": 4.1, "n_ratings": 229, "city": "Detroit", "black_owned": false }, "geometry": { "type": "Point", "coordinates": [ -83.127175, 42.311706 ] } },
{ "type": "Feature", "properties": { "address": "1370 Oakwood, Detroit, MI 48217, United States", "name": "2 Fat Boyz And A Grill", "rating": 3.9, "n_ratings": 17, "city": "Detroit", "black_owned": false }, "geometry": { "type": "Point", "coordinates": [ -83.1631693, 42.2856117 ] } },
{ "type": "Feature", "properties": { "address": "377 Schaefer Rd, Detroit, MI 48217, United States", "name": "SHARIF'S CAFE", "rating": 4.7, "n_ratings": 14, "city": "Detroit", "black_owned": false }, "geometry": { "type": "Point", "coordinates": [ -83.1649709, 42.2879436 ] } },
{ "type": "Feature", "properties": { "address": "9405 W Fort St, Detroit, MI 48209, United States", "name": "A & L Ham Palace", "rating": 4.6, "n_ratings": 409, "city": "Detroit", "black_owned": false }, "geometry": { "type": "Point", "coordinates": [ -83.1310291, 42.2955067 ] } },
{ "type": "Feature", "properties": { "address": "8445 West, 8445 Vernor Hwy, Detroit, MI 48209, United States", "name": "La Terraza", "rating": 4.0, "n_ratings": 853, "city": "Detroit", "black_owned": false }, "geometry": { "type": "Point", "coordinates": [ -83.1307714, 42.3098568 ] } },
{ "type": "Feature", "properties": { "address": "335 Schaefer Rd, Detroit, MI 48217, United States", "name": "Subway", "rating": 3.8, "n_ratings": 180, "city": "Detroit", "black_owned": false }, "geometry": { "type": "Point", "coordinates": [ -83.165928, 42.2887083 ] } },
{ "type": "Feature", "properties": { "address": "7400 Vernor Hwy, Detroit, MI 48209, United States", "name": "Taqueria El Nacimiento", "rating": 4.2, "n_ratings": 1795, "city": "Detroit", "black_owned": false }, "geometry": { "type": "Point", "coordinates": [ -83.1225349, 42.3136802 ] } },
{ "type": "Feature", "properties": { "address": "4242 Vernor Hwy, Detroit, MI 48209, United States", "name": "Armando's", "rating": 4.3, "n_ratings": 5319, "city": "Detroit", "black_owned": false }, "geometry": { "type": "Point", "coordinates": [ -83.0947211, 42.3208824 ] } },
{ "type": "Feature", "properties": { "address": "3362 Bagley St, Detroit, MI 48216, United States", "name": "Los Galanes Mexican Restaurant", "rating": 4.4, "n_ratings": 3663, "city": "Detroit", "black_owned": false }, "geometry": { "type": "Point", "coordinates": [ -83.0846872, 42.3234691 ] } },
{ "type": "Feature", "properties": { "address": "7271 Dix St, Detroit, MI 48209, United States", "name": "Mi Pueblo Express", "rating": 4.4, "n_ratings": 276, "city": "Detroit", "black_owned": false }, "geometry": { "type": "Point", "coordinates": [ -83.1236632, 42.3167422 ] } },
{ "type": "Feature", "properties": { "address": "1633 Lawndale St, Detroit, MI 48209, United States", "name": "Taqueria El Parian", "rating": 4.2, "n_ratings": 250, "city": "Detroit", "black_owned": false }, "geometry": { "type": "Point", "coordinates": [ -83.1297147, 42.304737 ] } },
{ "type": "Feature", "properties": { "address": "5458 Vernor Hwy, Detroit, MI 48209, United States", "name": "Duly's Place Coney Island", "rating": 4.7, "n_ratings": 1513, "city": "Detroit", "black_owned": false }, "geometry": { "type": "Point", "coordinates": [ -83.1017265, 42.317964 ] } },
{ "type": "Feature", "properties": { "address": "7111 W Fort St, Detroit, MI 48209, United States", "name": "Alfa Coney Grill", "rating": 4.4, "n_ratings": 202, "city": "Detroit", "black_owned": false }, "geometry": { "type": "Point", "coordinates": [ -83.1126223, 42.3023888 ] } },
{ "type": "Feature", "properties": { "address": "4800 W Fort St, Detroit, MI 48209, United States", "name": "Detroit 75 Kitchen", "rating": 4.5, "n_ratings": 1610, "city": "Detroit", "black_owned": false }, "geometry": { "type": "Point", "coordinates": [ -83.0945845, 42.310829299999988 ] } },
{ "type": "Feature", "properties": { "address": "3409 Bagley St, Detroit, MI 48216, United States", "name": "Xochimilco Restaurant", "rating": 4.2, "n_ratings": 5624, "city": "Detroit", "black_owned": false }, "geometry": { "type": "Point", "coordinates": [ -83.0849599, 42.3232015 ] } },
{ "type": "Feature", "properties": { "address": "8600 Vernor Hwy, Detroit, MI 48209, United States", "name": "El Salpicon Detroit | Mariscos", "rating": 4.2, "n_ratings": 459, "city": "Detroit", "black_owned": false }, "geometry": { "type": "Point", "coordinates": [ -83.1322795, 42.3095815 ] } },
{ "type": "Feature", "properties": { "address": "1101 Springwells St, Detroit, MI 48209, United States", "name": "McDonald's", "rating": 3.4, "n_ratings": 1102, "city": "Detroit", "black_owned": false }, "geometry": { "type": "Point", "coordinates": [ -83.120869, 42.30328 ] } },
{ "type": "Feature", "properties": { "address": "600 S Solvay St, Detroit, MI 48209, United States", "name": "Detroit Hot Sandwich Co.", "rating": 0.0, "n_ratings": 0, "city": "Detroit", "black_owned": false }, "geometry": { "type": "Point", "coordinates": [ -83.111021, 42.2959099 ] } },
{ "type": "Feature", "properties": { "address": "3457 Bagley St, Detroit, MI 48216, United States", "name": "Mexicantown Restaurant", "rating": 4.1, "n_ratings": 2602, "city": "Detroit", "black_owned": false }, "geometry": { "type": "Point", "coordinates": [ -83.08576, 42.3229267 ] } },
{ "type": "Feature", "properties": { "address": "1930 Springwells St, Detroit, MI 48209, United States", "name": "La Posada", "rating": 4.3, "n_ratings": 357, "city": "Detroit", "black_owned": false }, "geometry": { "type": "Point", "coordinates": [ -83.1254356, 42.3092438 ] } },
{ "type": "Feature", "properties": { "address": "1120 Springwells St, Detroit, MI 48209, United States", "name": "El Parian 2", "rating": 4.6, "n_ratings": 11, "city": "Detroit", "black_owned": false }, "geometry": { "type": "Point", "coordinates": [ -83.1198231, 42.302155 ] } },
{ "type": "Feature", "properties": { "address": "1445 Springwells St, Detroit, MI 48209, United States", "name": "Tacos el Caballo", "rating": 4.7, "n_ratings": 576, "city": "Detroit", "black_owned": false }, "geometry": { "type": "Point", "coordinates": [ -83.123165, 42.3055725 ] } },
{ "type": "Feature", "properties": { "address": "7220 W, 7220 Vernor Hwy, Detroit, MI 48209, United States", "name": "J & J Coney Island III", "rating": 4.3, "n_ratings": 320, "city": "Detroit", "black_owned": false }, "geometry": { "type": "Point", "coordinates": [ -83.1216492, 42.3138648 ] } },
{ "type": "Feature", "properties": { "address": "2054 Junction Ave, Detroit, MI 48209, United States", "name": "Pollo Chapin", "rating": 4.4, "n_ratings": 201, "city": "Detroit", "black_owned": false }, "geometry": { "type": "Point", "coordinates": [ -83.1027369, 42.3193785 ] } },
{ "type": "Feature", "properties": { "address": "6003 Vernor Hwy, Detroit, MI 48209, United States", "name": "McDonald's", "rating": 3.1, "n_ratings": 1133, "city": "Detroit", "black_owned": false }, "geometry": { "type": "Point", "coordinates": [ -83.105941, 42.3158877 ] } },
{ "type": "Feature", "properties": { "address": "3443 Bagley St, Detroit, MI 48216, United States", "name": "Taqueria Lupitas", "rating": 4.5, "n_ratings": 1277, "city": "Detroit", "black_owned": false }, "geometry": { "type": "Point", "coordinates": [ -83.0855393, 42.3230063 ] } },
{ "type": "Feature", "properties": { "address": "7135 Dix St, Detroit, MI 48209, United States", "name": "Pollos Los Gallos", "rating": 4.6, "n_ratings": 364, "city": "Detroit", "black_owned": false }, "geometry": { "type": "Point", "coordinates": [ -83.1221191, 42.3164813 ] } },
{ "type": "Feature", "properties": { "address": "2244 Junction Ave, Detroit, MI 48209, United States", "name": "Los Corrales", "rating": 4.2, "n_ratings": 926, "city": "Detroit", "black_owned": false }, "geometry": { "type": "Point", "coordinates": [ -83.1038841, 42.3208897 ] } },
{ "type": "Feature", "properties": { "address": "2257 Waterman St, Detroit, MI 48209, United States", "name": "La Esquinita Mexican Food", "rating": 4.0, "n_ratings": 2, "city": "Detroit", "black_owned": false }, "geometry": { "type": "Point", "coordinates": [ -83.1182756, 42.312278 ] } },
{ "type": "Feature", "properties": { "address": "2600 Bagley St, Detroit, MI 48216, United States", "name": "Mexican Village Restaurant", "rating": 4.4, "n_ratings": 3603, "city": "Detroit", "black_owned": false }, "geometry": { "type": "Point", "coordinates": [ -83.0783623, 42.3255129 ] } },
{ "type": "Feature", "properties": { "address": "2425 Central Ave, Detroit, MI 48209, United States", "name": "Mi Mundo Mexican Food", "rating": 4.2, "n_ratings": 20, "city": "Detroit", "black_owned": false }, "geometry": { "type": "Point", "coordinates": [ -83.1255738, 42.313798 ] } },
{ "type": "Feature", "properties": { "address": "2010 Springwells St, Detroit, MI 48209, United States", "name": "Family Treats", "rating": 4.7, "n_ratings": 655, "city": "Detroit", "black_owned": false }, "geometry": { "type": "Point", "coordinates": [ -83.1256921, 42.3096197 ] } },
{ "type": "Feature", "properties": { "address": "1430 Springwells St, Detroit, MI 48209, United States", "name": "Tacos El Gordo", "rating": 4.8, "n_ratings": 57, "city": "Detroit", "black_owned": false }, "geometry": { "type": "Point", "coordinates": [ -83.1227116, 42.3054436 ] } },
{ "type": "Feature", "properties": { "address": "3344 Vernor Hwy, Detroit, MI 48216, United States", "name": "Taqueria El Rey", "rating": 4.6, "n_ratings": 1950, "city": "Detroit", "black_owned": false }, "geometry": { "type": "Point", "coordinates": [ -83.0852774, 42.3247208 ] } },
{ "type": "Feature", "properties": { "address": "1807 Livernois, Detroit, MI 48209, United States", "name": "Mi Lindo San Blas", "rating": 4.1, "n_ratings": 869, "city": "Detroit", "black_owned": false }, "geometry": { "type": "Point", "coordinates": [ -83.109791, 42.3150687 ] } },
{ "type": "Feature", "properties": { "address": "1498 Junction Ave, Detroit, MI 48209, United States", "name": "Tacos Morelotes", "rating": 4.3, "n_ratings": 15, "city": "Detroit", "black_owned": false }, "geometry": { "type": "Point", "coordinates": [ -83.0998616, 42.3153564 ] } },
{ "type": "Feature", "properties": { "address": "6166 Vernor Hwy, Detroit, MI 48209, United States", "name": "Wingstop", "rating": 3.4, "n_ratings": 183, "city": "Detroit", "black_owned": false }, "geometry": { "type": "Point", "coordinates": [ -83.1082145, 42.316041 ] } },
{ "type": "Feature", "properties": { "address": "7031 Michigan Ave, Detroit, MI 48210, United States", "name": "Jordan's Family Restaurant", "rating": 4.5, "n_ratings": 733, "city": "Detroit", "black_owned": false }, "geometry": { "type": "Point", "coordinates": [ -83.1312114, 42.3309606 ] } },
{ "type": "Feature", "properties": { "address": "8163 Vernor Hwy, Detroit, MI 48209, United States", "name": "El Parian 1 taco truck", "rating": 4.6, "n_ratings": 31, "city": "Detroit", "black_owned": false }, "geometry": { "type": "Point", "coordinates": [ -83.1293872, 42.3103068 ] } },
{ "type": "Feature", "properties": { "address": "2140 Springwells St, Detroit, MI 48209, United States", "name": "Pancho Tacos", "rating": 5.0, "n_ratings": 3, "city": "Detroit", "black_owned": false }, "geometry": { "type": "Point", "coordinates": [ -83.1265017, 42.3106807 ] } },
{ "type": "Feature", "properties": { "address": "7635 Vernor Hwy, Detroit, MI 48209, United States", "name": "Paul's Pizza", "rating": 4.3, "n_ratings": 433, "city": "Detroit", "black_owned": false }, "geometry": { "type": "Point", "coordinates": [ -83.1236236, 42.3126849 ] } },
{ "type": "Feature", "properties": { "address": "7812-7816 Vernor Hwy, Detroit, MI 48209, United States", "name": "El Imperio Taco Stand", "rating": 4.6, "n_ratings": 145, "city": "Detroit", "black_owned": false }, "geometry": { "type": "Point", "coordinates": [ -83.1259234, 42.312074 ] } },
{ "type": "Feature", "properties": { "address": "1607 Waterman St, Detroit, MI 48209, United States", "name": "Guapos Tacos", "rating": 0.0, "n_ratings": 0, "city": "Detroit", "black_owned": false }, "geometry": { "type": "Point", "coordinates": [ -83.1133018, 42.3110428 ] } },
{ "type": "Feature", "properties": { "address": "1251 Dragoon St, Detroit, MI 48209, United States", "name": "Mariscos Montiel", "rating": 4.6, "n_ratings": 13, "city": "Detroit", "black_owned": false }, "geometry": { "type": "Point", "coordinates": [ -83.105681600000011, 42.311442 ] } },
{ "type": "Feature", "properties": { "address": "6251 Vernor Hwy, Detroit, MI 48209, United States", "name": "Burger King", "rating": 3.7, "n_ratings": 910, "city": "Detroit", "black_owned": false }, "geometry": { "type": "Point", "coordinates": [ -83.1089585, 42.3153671 ] } },
{ "type": "Feature", "properties": { "address": "4276 W Fort St, Detroit, MI 48209, United States", "name": "Subway", "rating": 4.3, "n_ratings": 225, "city": "Detroit", "black_owned": false }, "geometry": { "type": "Point", "coordinates": [ -83.0900346, 42.3127834 ] } },
{ "type": "Feature", "properties": { "address": "5431 Vernor Hwy, Detroit, MI 48209, United States", "name": "Tacos El Loco", "rating": 4.7, "n_ratings": 87, "city": "Detroit", "black_owned": false }, "geometry": { "type": "Point", "coordinates": [ -83.1012722, 42.3178839 ] } },
{ "type": "Feature", "properties": { "address": "3400 Bagley St, Detroit, MI 48216, United States", "name": "El Zocalo", "rating": 4.0, "n_ratings": 202, "city": "Detroit", "black_owned": false }, "geometry": { "type": "Point", "coordinates": [ -83.0849594, 42.3233513 ] } },
{ "type": "Feature", "properties": { "address": "5707 Southfield Rd, Detroit, MI 48228, United States", "name": "Chili's Grill & Bar", "rating": 3.5, "n_ratings": 2216, "city": "Detroit", "black_owned": false }, "geometry": { "type": "Point", "coordinates": [ -83.219059, 42.329717 ] } },
{ "type": "Feature", "properties": { "address": "5801 Southfield Fwy, Detroit, MI 48228, United States", "name": "Grille 39", "rating": 3.9, "n_ratings": 95, "city": "Detroit", "black_owned": false }, "geometry": { "type": "Point", "coordinates": [ -83.2177651, 42.3310345 ] } },
{ "type": "Feature", "properties": { "address": "7146 Michigan Ave, Detroit, MI 48210, United States", "name": "Señor Lopez Mexican Restaurant Detroit", "rating": 4.3, "n_ratings": 991, "city": "Detroit", "black_owned": false }, "geometry": { "type": "Point", "coordinates": [ -83.1328905, 42.3313408 ] } },
{ "type": "Feature", "properties": { "address": "7641 Dix St, Detroit, MI 48209, United States", "name": "Primo's Tacos", "rating": 4.7, "n_ratings": 846, "city": "Detroit", "black_owned": false }, "geometry": { "type": "Point", "coordinates": [ -83.1263772, 42.3168117 ] } },
{ "type": "Feature", "properties": { "address": "7440 Dix St, Detroit, MI 48209, United States", "name": "La chilies", "rating": 5.0, "n_ratings": 17, "city": "Detroit", "black_owned": false }, "geometry": { "type": "Point", "coordinates": [ -83.1255173, 42.3171664 ] } },
{ "type": "Feature", "properties": { "address": "8065 Vernor Hwy, Detroit, MI 48209, United States", "name": "El Rincon Negriteño", "rating": 5.0, "n_ratings": 9, "city": "Detroit", "black_owned": false }, "geometry": { "type": "Point", "coordinates": [ -83.1283944, 42.3108128 ] } },
{ "type": "Feature", "properties": { "address": "7603 Vernor Hwy, Detroit, MI 48209, United States", "name": "Mexican Town Pizza", "rating": 0.0, "n_ratings": 0, "city": "Detroit", "black_owned": false }, "geometry": { "type": "Point", "coordinates": [ -83.1231352, 42.3129822 ] } },
{ "type": "Feature", "properties": { "address": "7009 Vernor Hwy, Detroit, MI 48209, United States", "name": "Las Palmas Neveria Y Cafeteria", "rating": 4.5, "n_ratings": 63, "city": "Detroit", "black_owned": false }, "geometry": { "type": "Point", "coordinates": [ -83.1191093, 42.3146559 ] } },
{ "type": "Feature", "properties": { "address": "6117 Vernor Hwy, Detroit, MI 48209, United States", "name": "Coronados Southwest Tacos food truck", "rating": 5.0, "n_ratings": 30, "city": "Detroit", "black_owned": false }, "geometry": { "type": "Point", "coordinates": [ -83.1070796, 42.3154717 ] } },
{ "type": "Feature", "properties": { "address": "6060 Vernor Hwy, Detroit, MI 48209, United States", "name": "Checkers", "rating": 3.8, "n_ratings": 593, "city": "Detroit", "black_owned": false }, "geometry": { "type": "Point", "coordinates": [ -83.106629, 42.3161406 ] } },
{ "type": "Feature", "properties": { "address": "6020 Vernor Hwy, Detroit, MI 48209, United States", "name": "Hacienda Mexican Foods", "rating": 3.3, "n_ratings": 4, "city": "Detroit", "black_owned": false }, "geometry": { "type": "Point", "coordinates": [ -83.1061408, 42.316184799999988 ] } },
{ "type": "Feature", "properties": { "address": "5644 Porter St, Detroit, MI 48209, United States", "name": "Mexican Dream's Burrito Stand", "rating": 5.0, "n_ratings": 1, "city": "Detroit", "black_owned": false }, "geometry": { "type": "Point", "coordinates": [ -83.0998999, 42.3136873 ] } },
{ "type": "Feature", "properties": { "address": "1650 Lansing St, Detroit, MI 48209, United States", "name": "China House", "rating": 3.9, "n_ratings": 182, "city": "Detroit", "black_owned": false }, "geometry": { "type": "Point", "coordinates": [ -83.0976802, 42.3189527 ] } },
{ "type": "Feature", "properties": { "address": "2601 W Fort St, Detroit, MI 48216, United States", "name": "Johnny Noodle King", "rating": 4.5, "n_ratings": 2362, "city": "Detroit", "black_owned": false }, "geometry": { "type": "Point", "coordinates": [ -83.0744359, 42.3189314 ] } },
{ "type": "Feature", "properties": { "address": "6820 Michigan Ave, Detroit, MI 48210, United States", "name": "Telway Hamburgers", "rating": 4.5, "n_ratings": 2580, "city": "Detroit", "black_owned": false }, "geometry": { "type": "Point", "coordinates": [ -83.127929, 42.3313141 ] } },
{ "type": "Feature", "properties": { "address": "4000 Livernois, Detroit, MI 48209, United States", "name": "Las Cazuelas Detroit Location", "rating": 4.4, "n_ratings": 868, "city": "Detroit", "black_owned": false }, "geometry": { "type": "Point", "coordinates": [ -83.1196073, 42.330624 ] } },
{ "type": "Feature", "properties": { "address": "6700 Dix St, Detroit, MI 48209, United States", "name": "The Real Boss", "rating": 4.0, "n_ratings": 29, "city": "Detroit", "black_owned": false }, "geometry": { "type": "Point", "coordinates": [ -83.1168893, 42.3162127 ] } },
{ "type": "Feature", "properties": { "address": "6172 Toledo St, Detroit, MI 48209, United States", "name": "El Taco Veloz", "rating": 4.6, "n_ratings": 1103, "city": "Detroit", "black_owned": false }, "geometry": { "type": "Point", "coordinates": [ -83.1101418, 42.3189585 ] } },
{ "type": "Feature", "properties": { "address": "1930 Military St, Detroit, MI 48209, United States", "name": "El Taquito Taco Truck", "rating": 4.4, "n_ratings": 135, "city": "Detroit", "black_owned": false }, "geometry": { "type": "Point", "coordinates": [ -83.1065315, 42.316585 ] } },
{ "type": "Feature", "properties": { "address": "5890 Vernor Hwy, Detroit, MI 48209, United States", "name": "Cantina Mexicana Iblenbenidos !", "rating": 4.5, "n_ratings": 2, "city": "Detroit", "black_owned": false }, "geometry": { "type": "Point", "coordinates": [ -83.1054586, 42.3164446 ] } },
{ "type": "Feature", "properties": { "address": "4802 Vernor Hwy, Detroit, MI 48209, United States", "name": "El Parian 3", "rating": 4.7, "n_ratings": 250, "city": "Detroit", "black_owned": false }, "geometry": { "type": "Point", "coordinates": [ -83.0998386, 42.3189508 ] } },
{ "type": "Feature", "properties": { "address": "4650 Vernor Hwy, Detroit, MI 48209, United States", "name": "Chicago's Pizza", "rating": 3.9, "n_ratings": 519, "city": "Detroit", "black_owned": false }, "geometry": { "type": "Point", "coordinates": [ -83.0981823, 42.319564 ] } },
{ "type": "Feature", "properties": { "address": "4635 Vernor Hwy, Detroit, MI 48209, United States", "name": "Little Caesars Pizza", "rating": 3.7, "n_ratings": 504, "city": "Detroit", "black_owned": false }, "geometry": { "type": "Point", "coordinates": [ -83.0975724, 42.3190617 ] } },
{ "type": "Feature", "properties": { "address": "4440 Vernor Hwy, Detroit, MI 48209, United States", "name": "Flowers of Vietnam", "rating": 4.6, "n_ratings": 611, "city": "Detroit", "black_owned": false }, "geometry": { "type": "Point", "coordinates": [ -83.0965483, 42.320256 ] } },
{ "type": "Feature", "properties": { "address": "3554 Vernor Hwy, Detroit, MI 48216, United States", "name": "Sicily's pizzeria and subs", "rating": 4.5, "n_ratings": 679, "city": "Detroit", "black_owned": false }, "geometry": { "type": "Point", "coordinates": [ -83.0876841, 42.3236394 ] } },
{ "type": "Feature", "properties": { "address": "3454 Bagley St, Detroit, MI 48216, United States", "name": "Evie's Tamales", "rating": 4.5, "n_ratings": 1224, "city": "Detroit", "black_owned": false }, "geometry": { "type": "Point", "coordinates": [ -83.0857006, 42.3231355 ] } },
{ "type": "Feature", "properties": { "address": "2200 W Lafayette Blvd, Detroit, MI 48216, United States", "name": "Green Dot Stables", "rating": 4.5, "n_ratings": 5395, "city": "Detroit", "black_owned": false }, "geometry": { "type": "Point", "coordinates": [ -83.0715871, 42.321861899999988 ] } },
{ "type": "Feature", "properties": { "address": "1366 W Fort St, Detroit, MI 48226, United States", "name": "Sheeba Express", "rating": 4.4, "n_ratings": 385, "city": "Detroit", "black_owned": false }, "geometry": { "type": "Point", "coordinates": [ -83.0604402, 42.3252701 ] } },
{ "type": "Feature", "properties": { "address": "1350 W Fort St, Detroit, MI 48226, United States", "name": "King Grill", "rating": 4.2, "n_ratings": 554, "city": "Detroit", "black_owned": false }, "geometry": { "type": "Point", "coordinates": [ -83.0603418, 42.3254145 ] } },
{ "type": "Feature", "properties": { "address": "616 Woodward Ave, Detroit, MI 48226, United States", "name": "Woodward Coney Restaurant", "rating": 3.9, "n_ratings": 340, "city": "Detroit", "black_owned": false }, "geometry": { "type": "Point", "coordinates": [ -83.0456784, 42.3306266 ] } },
{ "type": "Feature", "properties": { "address": "18430 Ford Rd, Detroit, MI 48228, United States", "name": "Wendy's", "rating": 3.1, "n_ratings": 1906, "city": "Detroit", "black_owned": false }, "geometry": { "type": "Point", "coordinates": [ -83.2196921, 42.3294196 ] } },
{ "type": "Feature", "properties": { "address": "3735 Central Ave, Detroit, MI 48210, United States", "name": "Restaurant Corderos", "rating": 0.0, "n_ratings": 0, "city": "Detroit", "black_owned": false }, "geometry": { "type": "Point", "coordinates": [ -83.1331103, 42.3241333 ] } },
{ "type": "Feature", "properties": { "address": "3700 Central Ave, Detroit, MI 48210, United States", "name": "Tacos El Primo", "rating": 4.6, "n_ratings": 443, "city": "Detroit", "black_owned": false }, "geometry": { "type": "Point", "coordinates": [ -83.1316895, 42.3239172 ] } },
{ "type": "Feature", "properties": { "address": "5015 Livernois, Detroit, MI 48210, United States", "name": "La Fogata Mexican Grill", "rating": 4.4, "n_ratings": 374, "city": "Detroit", "black_owned": false }, "geometry": { "type": "Point", "coordinates": [ -83.1250789, 42.3364588 ] } },
{ "type": "Feature", "properties": { "address": "7849 McGraw Ave, Detroit, MI 48210, United States", "name": "La Rosita", "rating": 4.1, "n_ratings": 447, "city": "Detroit", "black_owned": false }, "geometry": { "type": "Point", "coordinates": [ -83.142176, 42.3347913 ] } },
{ "type": "Feature", "properties": { "address": "3149 Livernois, Detroit, MI 48210, United States", "name": "Pupuseria Y Restaurante Salvadoreno", "rating": 4.4, "n_ratings": 800, "city": "Detroit", "black_owned": false }, "geometry": { "type": "Point", "coordinates": [ -83.1162494, 42.3248804 ] } },
{ "type": "Feature", "properties": { "address": "6320 John Kronk St, Detroit, MI 48210, United States", "name": "Popusas", "rating": 5.0, "n_ratings": 1, "city": "Detroit", "black_owned": false }, "geometry": { "type": "Point", "coordinates": [ -83.116476, 42.324785 ] } },
{ "type": "Feature", "properties": { "address": "3710 Junction Ave, Detroit, MI 48210, United States", "name": "El Barzon", "rating": 4.5, "n_ratings": 948, "city": "Detroit", "black_owned": false }, "geometry": { "type": "Point", "coordinates": [ -83.1109622, 42.3306884 ] } },
{ "type": "Feature", "properties": { "address": "2351 Junction Ave, Detroit, MI 48209, United States", "name": "La Morena", "rating": 4.6, "n_ratings": 31, "city": "Detroit", "black_owned": false }, "geometry": { "type": "Point", "coordinates": [ -83.104653, 42.3215527 ] } },
{ "type": "Feature", "properties": { "address": "3923 Vernor Hwy, Detroit, MI 48216, United States", "name": "Super Mexicana Taqueria", "rating": 4.5, "n_ratings": 56, "city": "Detroit", "black_owned": false }, "geometry": { "type": "Point", "coordinates": [ -83.0911464, 42.3219953 ] } },
{ "type": "Feature", "properties": { "address": "4049 Vernor Hwy, Detroit, MI 48209, United States", "name": "Tacos El Tapatio", "rating": 4.8, "n_ratings": 41, "city": "Detroit", "black_owned": false }, "geometry": { "type": "Point", "coordinates": [ -83.0927094, 42.321293399999988 ] } },
{ "type": "Feature", "properties": { "address": "4415 Vernor Hwy, Detroit, MI 48209, United States", "name": "Krispy Krunchy Chicken", "rating": 2.5, "n_ratings": 2, "city": "Detroit", "black_owned": false }, "geometry": { "type": "Point", "coordinates": [ -83.095931, 42.3200547 ] } },
{ "type": "Feature", "properties": { "address": "3849 Vernor Hwy, Detroit, MI 48216, United States", "name": "Amicci's Pizza", "rating": 3.9, "n_ratings": 388, "city": "Detroit", "black_owned": false }, "geometry": { "type": "Point", "coordinates": [ -83.0901399, 42.3223128 ] } },
{ "type": "Feature", "properties": { "address": "3923 Vernor Hwy, Detroit, MI 48216, United States", "name": "La Jalisciense Supermercado Y Taqueria", "rating": 4.4, "n_ratings": 934, "city": "Detroit", "black_owned": false }, "geometry": { "type": "Point", "coordinates": [ -83.0909513, 42.3219043 ] } },
{ "type": "Feature", "properties": { "address": "2163 Michigan Ave, Detroit, MI 48216, United States", "name": "Mercury Burger & Bar", "rating": 4.5, "n_ratings": 2865, "city": "Detroit", "black_owned": false }, "geometry": { "type": "Point", "coordinates": [ -83.076200899999989, 42.331143399999988 ] } },
{ "type": "Feature", "properties": { "address": "1400 Michigan Ave, Detroit, MI 48216, United States", "name": "Ottava Via", "rating": 4.5, "n_ratings": 2310, "city": "Detroit", "black_owned": false }, "geometry": { "type": "Point", "coordinates": [ -83.0657742, 42.331703399999988 ] } },
{ "type": "Feature", "properties": { "address": "2669 Vernor Hwy, Detroit, MI 48216, United States", "name": "Tamaleria Nuevo Leon", "rating": 4.4, "n_ratings": 440, "city": "Detroit", "black_owned": false }, "geometry": { "type": "Point", "coordinates": [ -83.0799939, 42.3263276 ] } },
{ "type": "Feature", "properties": { "address": "1930 Michigan Ave, Detroit, MI 48216, United States", "name": "White Castle", "rating": 3.9, "n_ratings": 1460, "city": "Detroit", "black_owned": false }, "geometry": { "type": "Point", "coordinates": [ -83.0728628, 42.3317178 ] } },
{ "type": "Feature", "properties": { "address": "2547 Bagley St, Detroit, MI 48216, United States", "name": "The Goblin Detroit", "rating": 4.5, "n_ratings": 184, "city": "Detroit", "black_owned": false }, "geometry": { "type": "Point", "coordinates": [ -83.0778331, 42.3253978 ] } },
{ "type": "Feature", "properties": { "address": "2415 Michigan Ave, Detroit, MI 48216, United States", "name": "Cork & Gabel", "rating": 4.6, "n_ratings": 642, "city": "Detroit", "black_owned": false }, "geometry": { "type": "Point", "coordinates": [ -83.0790549, 42.331173 ] } },
{ "type": "Feature", "properties": { "address": "Michigan and Trumbull, Detroit, MI 48216, United States", "name": "Lady of the House", "rating": 4.6, "n_ratings": 701, "city": "Detroit", "black_owned": false }, "geometry": { "type": "Point", "coordinates": [ -83.0669396, 42.3314184 ] } },
{ "type": "Feature", "properties": { "address": "2100 Bagley St, Detroit, MI 48216, United States", "name": "Antojitos Southwest", "rating": 4.7, "n_ratings": 272, "city": "Detroit", "black_owned": false }, "geometry": { "type": "Point", "coordinates": [ -83.0728036, 42.327228 ] } },
{ "type": "Feature", "properties": { "address": "1444 W Fort St, Detroit, MI 48216, United States", "name": "Detroit Loves Tacos,LLC", "rating": 4.2, "n_ratings": 109, "city": "Detroit", "black_owned": false }, "geometry": { "type": "Point", "coordinates": [ -83.0613406, 42.3251552 ] } },
{ "type": "Feature", "properties": { "address": "615-799 W Lafayette Blvd, Detroit, MI 48226, United States", "name": "Press Room Detroit", "rating": 3.9, "n_ratings": 149, "city": "Detroit", "black_owned": false }, "geometry": { "type": "Point", "coordinates": [ -83.054546, 42.3285867 ] } },
{ "type": "Feature", "properties": { "address": "441 W Grand River Ave, Detroit, MI 48226, United States", "name": "Nick's Gaslight", "rating": 3.7, "n_ratings": 147, "city": "Detroit", "black_owned": false }, "geometry": { "type": "Point", "coordinates": [ -83.052981699999989, 42.333855 ] } },
{ "type": "Feature", "properties": { "address": "118 W Lafayette Blvd, Detroit, MI 48226, United States", "name": "Lafayette Coney Island", "rating": 4.5, "n_ratings": 4695, "city": "Detroit", "black_owned": false }, "geometry": { "type": "Point", "coordinates": [ -83.0488561, 42.3314943 ] } },
{ "type": "Feature", "properties": { "address": "2 Washington Blvd, Detroit, MI 48226, United States", "name": "Top Of The Pontch", "rating": 3.8, "n_ratings": 49, "city": "Detroit", "black_owned": false }, "geometry": { "type": "Point", "coordinates": [ -83.0478027, 42.3279976 ] } },
{ "type": "Feature", "properties": { "address": "500 Woodward Ave, Detroit, MI 48226, United States", "name": "Townhouse Detroit", "rating": 4.0, "n_ratings": 2866, "city": "Detroit", "black_owned": false }, "geometry": { "type": "Point", "coordinates": [ -83.0453143, 42.3301258 ] } },
{ "type": "Feature", "properties": { "address": "114 W Lafayette Blvd, Detroit, MI 48226, United States", "name": "American Coney Island", "rating": 4.1, "n_ratings": 3309, "city": "Detroit", "black_owned": false }, "geometry": { "type": "Point", "coordinates": [ -83.0486713, 42.331516099999988 ] } },
{ "type": "Feature", "properties": { "address": "1020 Washington Blvd, Detroit, MI 48226, United States", "name": "24Grille", "rating": 4.0, "n_ratings": 533, "city": "Detroit", "black_owned": false }, "geometry": { "type": "Point", "coordinates": [ -83.0506774, 42.331440099999988 ] } },
{ "type": "Feature", "properties": { "address": "645 Griswold St, Detroit, MI 48226, United States", "name": "Fresh Mex Grille", "rating": 4.2, "n_ratings": 142, "city": "Detroit", "black_owned": false }, "geometry": { "type": "Point", "coordinates": [ -83.0474261, 42.3304912 ] } },
{ "type": "Feature", "properties": { "address": "18490 Ford Rd, Detroit, MI 48228, United States", "name": "Ford Patio Bar & Grill", "rating": 4.2, "n_ratings": 572, "city": "Detroit", "black_owned": false }, "geometry": { "type": "Point", "coordinates": [ -83.2206897, 42.3293349 ] } },
{ "type": "Feature", "properties": { "address": "7701 McGraw Ave, Detroit, MI 48210, United States", "name": "El Rey de las Arepas", "rating": 4.6, "n_ratings": 382, "city": "Detroit", "black_owned": false }, "geometry": { "type": "Point", "coordinates": [ -83.1407446, 42.3353117 ] } },
{ "type": "Feature", "properties": { "address": "6600 Michigan Ave, Detroit, MI 48210, United States", "name": "Kwong Village", "rating": 4.2, "n_ratings": 232, "city": "Detroit", "black_owned": false }, "geometry": { "type": "Point", "coordinates": [ -83.124721900000011, 42.3314021 ] } },
{ "type": "Feature", "properties": { "address": "3511 Clippert St, Detroit, MI 48210, United States", "name": "The Rock's Bar & Grill", "rating": 4.8, "n_ratings": 24, "city": "Detroit", "black_owned": false }, "geometry": { "type": "Point", "coordinates": [ -83.1217492, 42.3259443 ] } },
{ "type": "Feature", "properties": { "address": "5517 Michigan Ave, Detroit, MI 48210, United States", "name": "La Noria Ristorante", "rating": 4.5, "n_ratings": 322, "city": "Detroit", "black_owned": false }, "geometry": { "type": "Point", "coordinates": [ -83.1109953, 42.3310108 ] } },
{ "type": "Feature", "properties": { "address": "3278 Livernois, Detroit, MI 48210, United States", "name": "La fogata taco bar", "rating": 4.3, "n_ratings": 82, "city": "Detroit", "black_owned": false }, "geometry": { "type": "Point", "coordinates": [ -83.1162423, 42.3262605 ] } },
{ "type": "Feature", "properties": { "address": "2199 Lansing St, Detroit, MI 48209, United States", "name": "Sushi Sunday", "rating": 4.3, "n_ratings": 6, "city": "Detroit", "black_owned": false }, "geometry": { "type": "Point", "coordinates": [ -83.1005522, 42.3219939 ] } },
{ "type": "Feature", "properties": { "address": "2200 Scotten St, Detroit, MI 48209, United States", "name": "Taquera de barbacoa de res", "rating": 0.0, "n_ratings": 0, "city": "Detroit", "black_owned": false }, "geometry": { "type": "Point", "coordinates": [ -83.0956778, 42.3239706 ] } },
{ "type": "Feature", "properties": { "address": "2138 Michigan Ave, Detroit, MI 48216, United States", "name": "Slows Bar BQ", "rating": 4.4, "n_ratings": 4689, "city": "Detroit", "black_owned": false }, "geometry": { "type": "Point", "coordinates": [ -83.07601, 42.3315431 ] } },
{ "type": "Feature", "properties": { "address": "2520 Michigan Ave, Detroit, MI 48216, United States", "name": "Takoi", "rating": 4.6, "n_ratings": 1149, "city": "Detroit", "black_owned": false }, "geometry": { "type": "Point", "coordinates": [ -83.0808345, 42.3316028 ] } },
{ "type": "Feature", "properties": { "address": "1425 W Lafayette Blvd, Detroit, MI 48216, United States", "name": "Burger King", "rating": 3.5, "n_ratings": 927, "city": "Detroit", "black_owned": false }, "geometry": { "type": "Point", "coordinates": [ -83.061486, 42.3254862 ] } },
{ "type": "Feature", "properties": { "address": "525 W Lafayette Blvd, Detroit, MI 48226, United States", "name": "Motor City Kitchen", "rating": 3.9, "n_ratings": 44, "city": "Detroit", "black_owned": false }, "geometry": { "type": "Point", "coordinates": [ -83.0529373, 42.3293585 ] } },
{ "type": "Feature", "properties": { "address": "250 W Larned St, Detroit, MI 48226, United States", "name": "The Apparatus Room", "rating": 4.4, "n_ratings": 2234, "city": "Detroit", "black_owned": false }, "geometry": { "type": "Point", "coordinates": [ -83.048352, 42.328328 ] } },
{ "type": "Feature", "properties": { "address": "1224 Griswold St, Detroit, MI 48226, United States", "name": "La Lanterna", "rating": 4.4, "n_ratings": 790, "city": "Detroit", "black_owned": false }, "geometry": { "type": "Point", "coordinates": [ -83.0489915, 42.3330612 ] } },
{ "type": "Feature", "properties": { "address": "600 Woodward Ave, Detroit, MI 48226, United States", "name": "BESA", "rating": 4.7, "n_ratings": 612, "city": "Detroit", "black_owned": false }, "geometry": { "type": "Point", "coordinates": [ -83.045432300000016, 42.3304823 ] } },
{ "type": "Feature", "properties": { "address": "1250 Library St, Detroit, MI 48226, United States", "name": "Vicente’s Cuban Cuisine", "rating": 4.4, "n_ratings": 2320, "city": "Detroit", "black_owned": false }, "geometry": { "type": "Point", "coordinates": [ -83.0470142, 42.3344714 ] } },
{ "type": "Feature", "properties": { "address": "Crowne Plaza Detroit Downtown Convention Center, 2 Washington Blvd, Detroit, MI 48226, United States", "name": "Urban Cellars", "rating": 3.3, "n_ratings": 35, "city": "Detroit", "black_owned": false }, "geometry": { "type": "Point", "coordinates": [ -83.0479543, 42.3279012 ] } },
{ "type": "Feature", "properties": { "address": "150 W Jefferson Ave, Detroit, MI 48226, United States", "name": "Anita's Kitchen", "rating": 4.5, "n_ratings": 159, "city": "Detroit", "black_owned": false }, "geometry": { "type": "Point", "coordinates": [ -83.046108600000011, 42.3288604 ] } },
{ "type": "Feature", "properties": { "address": "333 E Jefferson Ave, Detroit, MI 48226, United States", "name": "Applebee's Grill + Bar", "rating": 4.0, "n_ratings": 906, "city": "Detroit", "black_owned": false }, "geometry": { "type": "Point", "coordinates": [ -83.0416841, 42.3305356 ] } },
{ "type": "Feature", "properties": { "address": "400 Renaissance Center #1404, Detroit, MI 48243, United States", "name": "Joe Muer Seafood", "rating": 4.4, "n_ratings": 2361, "city": "Detroit", "black_owned": false }, "geometry": { "type": "Point", "coordinates": [ -83.0400441, 42.3279334 ] } },
{ "type": "Feature", "properties": { "address": "400 Renaissance Center A-03, Detroit, MI 48243, United States", "name": "Andiamo Detroit Riverfront", "rating": 4.4, "n_ratings": 2456, "city": "Detroit", "black_owned": false }, "geometry": { "type": "Point", "coordinates": [ -83.0394296, 42.3282595 ] } },
{ "type": "Feature", "properties": { "address": "18706 Ford Rd, Detroit, MI 48228, United States", "name": "Pizza Place", "rating": 3.7, "n_ratings": 630, "city": "Detroit", "black_owned": false }, "geometry": { "type": "Point", "coordinates": [ -83.2229245, 42.3292756 ] } },
{ "type": "Feature", "properties": { "address": "5707 Southfield Rd, Detroit, MI 48228, United States", "name": "It's Just Wings", "rating": 2.5, "n_ratings": 27, "city": "Detroit", "black_owned": false }, "geometry": { "type": "Point", "coordinates": [ -83.219059, 42.329717 ] } },
{ "type": "Feature", "properties": { "address": "Detroit, MI 48210, United States", "name": "Celebrity Bar & Grill", "rating": 4.1, "n_ratings": 11, "city": "Detroit", "black_owned": false }, "geometry": { "type": "Point", "coordinates": [ -83.1437603, 42.3307688 ] } },
{ "type": "Feature", "properties": { "address": "7633 Michigan Ave, Detroit, MI 48210, United States", "name": "Little Caesars Pizza", "rating": 3.2, "n_ratings": 730, "city": "Detroit", "black_owned": false }, "geometry": { "type": "Point", "coordinates": [ -83.1369721, 42.330784 ] } },
{ "type": "Feature", "properties": { "address": "7060 Michigan Ave, Detroit, MI 48210, United States", "name": "Church's Texas Chicken", "rating": 3.6, "n_ratings": 1155, "city": "Detroit", "black_owned": false }, "geometry": { "type": "Point", "coordinates": [ -83.1317651, 42.331401 ] } },
{ "type": "Feature", "properties": { "address": "6876 Michigan Ave, Detroit, MI 48210, United States", "name": "McDonald's", "rating": 3.5, "n_ratings": 1748, "city": "Detroit", "black_owned": false }, "geometry": { "type": "Point", "coordinates": [ -83.1295818, 42.3314615 ] } },
{ "type": "Feature", "properties": { "address": "7801 Michigan Ave, Detroit, MI 48210, United States", "name": "zizo's pizza", "rating": 4.6, "n_ratings": 23, "city": "Detroit", "black_owned": false }, "geometry": { "type": "Point", "coordinates": [ -83.1388494, 42.3309294 ] } },
{ "type": "Feature", "properties": { "address": "7115 Parkwood St, Detroit, MI 48210, United States", "name": "Los Dos Amigos Taco Truck", "rating": 4.5, "n_ratings": 124, "city": "Detroit", "black_owned": false }, "geometry": { "type": "Point", "coordinates": [ -83.1293096, 42.3279819 ] } },
{ "type": "Feature", "properties": { "address": "6538 Michigan Ave, Detroit, MI 48210, United States", "name": "Rincon Tropical", "rating": 4.2, "n_ratings": 643, "city": "Detroit", "black_owned": false }, "geometry": { "type": "Point", "coordinates": [ -83.124541100000016, 42.3314939 ] } },
{ "type": "Feature", "properties": { "address": "6835 Michigan Ave, Detroit, MI 48210, United States", "name": "Hibachi Me", "rating": 4.5, "n_ratings": 97, "city": "Detroit", "black_owned": false }, "geometry": { "type": "Point", "coordinates": [ -83.1274093, 42.330683400000012 ] } },
{ "type": "Feature", "properties": { "address": "6835 Michigan Ave, Detroit, MI 48210, United States", "name": "Tacos El Toro", "rating": 4.3, "n_ratings": 3, "city": "Detroit", "black_owned": false }, "geometry": { "type": "Point", "coordinates": [ -83.1274542, 42.3306654 ] } },
{ "type": "Feature", "properties": { "address": "6343 Michigan Ave, Detroit, MI 48210, United States", "name": "La Cuscatleca Inc", "rating": 3.9, "n_ratings": 212, "city": "Detroit", "black_owned": false }, "geometry": { "type": "Point", "coordinates": [ -83.1213622, 42.3309029 ] } },
{ "type": "Feature", "properties": { "address": "4220 Livernois, Detroit, MI 48210, United States", "name": "Happy's Pizza", "rating": 3.6, "n_ratings": 467, "city": "Detroit", "black_owned": false }, "geometry": { "type": "Point", "coordinates": [ -83.1202458, 42.3316845 ] } },
{ "type": "Feature", "properties": { "address": "6171 Michigan Ave, Detroit, MI 48210, United States", "name": "Adi Coney Island", "rating": 3.8, "n_ratings": 910, "city": "Detroit", "black_owned": false }, "geometry": { "type": "Point", "coordinates": [ -83.1184485, 42.3308641 ] } },
{ "type": "Feature", "properties": { "address": "5938 Michigan Ave, Detroit, MI 48210, United States", "name": "Taqueria Los Dos Carnales", "rating": 4.2, "n_ratings": 39, "city": "Detroit", "black_owned": false }, "geometry": { "type": "Point", "coordinates": [ -83.1163255, 42.3314415 ] } },
{ "type": "Feature", "properties": { "address": "4865 Michigan Ave, Detroit, MI 48210, United States", "name": "Mi Barrio Plaza", "rating": 3.8, "n_ratings": 94, "city": "Detroit", "black_owned": false }, "geometry": { "type": "Point", "coordinates": [ -83.109533, 42.330735 ] } },
{ "type": "Feature", "properties": { "address": "3503 Junction Ave, Detroit, MI 48210, United States", "name": "La Nena’s Sabor de Mami", "rating": 5.0, "n_ratings": 3, "city": "Detroit", "black_owned": false }, "geometry": { "type": "Point", "coordinates": [ -83.1107251, 42.3298685 ] } },
{ "type": "Feature", "properties": { "address": "5938 Michigan Ave, Detroit, MI 48210, United States", "name": "Detroit Food Truck Park", "rating": 4.3, "n_ratings": 6, "city": "Detroit", "black_owned": false }, "geometry": { "type": "Point", "coordinates": [ -83.1163255, 42.3314415 ] } },
{ "type": "Feature", "properties": { "address": "3700 Michigan Ave, Detroit, MI 48216, United States", "name": "Mike's Famous Ham Place", "rating": 4.8, "n_ratings": 431, "city": "Detroit", "black_owned": false }, "geometry": { "type": "Point", "coordinates": [ -83.094432, 42.3316015 ] } },
{ "type": "Feature", "properties": { "address": "3640 Michigan Ave, Detroit, MI 48216, United States", "name": "Hygrade Deli", "rating": 4.5, "n_ratings": 824, "city": "Detroit", "black_owned": false }, "geometry": { "type": "Point", "coordinates": [ -83.0940822, 42.3316199 ] } },
{ "type": "Feature", "properties": { "address": "1757 24th St, Detroit, MI 48216, United States", "name": "Torta Express", "rating": 5.0, "n_ratings": 9, "city": "Detroit", "black_owned": false }, "geometry": { "type": "Point", "coordinates": [ -83.0867175, 42.323685 ] } },
{ "type": "Feature", "properties": { "address": "2442 Michigan Ave, Detroit, MI 48216, United States", "name": "Supergeil", "rating": 4.6, "n_ratings": 394, "city": "Detroit", "black_owned": false }, "geometry": { "type": "Point", "coordinates": [ -83.0801109, 42.3315827 ] } },
{ "type": "Feature", "properties": { "address": "2135 Michigan Ave, Detroit, MI 48216, United States", "name": "Grandma Bob’s Pizza", "rating": 4.6, "n_ratings": 542, "city": "Detroit", "black_owned": false }, "geometry": { "type": "Point", "coordinates": [ -83.075851500000013, 42.3311998 ] } },
{ "type": "Feature", "properties": { "address": "Michigan &, Vermont St, Detroit, MI 48216, United States", "name": "Tacos El Rodeo", "rating": 4.7, "n_ratings": 23, "city": "Detroit", "black_owned": false }, "geometry": { "type": "Point", "coordinates": [ -83.0732588, 42.3312072 ] } },
{ "type": "Feature", "properties": { "address": "1715 Michigan Ave, Detroit, MI 48216, United States", "name": "Subway", "rating": 3.8, "n_ratings": 135, "city": "Detroit", "black_owned": false }, "geometry": { "type": "Point", "coordinates": [ -83.0697043, 42.331116400000013 ] } },
{ "type": "Feature", "properties": { "address": "1800 Michigan Ave, Detroit, MI 48216, United States", "name": "Bobcat Bonnie's", "rating": 4.4, "n_ratings": 2023, "city": "Detroit", "black_owned": false }, "geometry": { "type": "Point", "coordinates": [ -83.070941499999989, 42.3316434 ] } },
{ "type": "Feature", "properties": { "address": "1701 Trumbull, Detroit, MI 48216, United States", "name": "Mink Detroit", "rating": 4.7, "n_ratings": 173, "city": "Detroit", "black_owned": false }, "geometry": { "type": "Point", "coordinates": [ -83.065823, 42.3296005 ] } },
{ "type": "Feature", "properties": { "address": "1777 3rd Ave, Detroit, MI 48226, United States", "name": "Breeze", "rating": 3.8, "n_ratings": 104, "city": "Detroit", "black_owned": false }, "geometry": { "type": "Point", "coordinates": [ -83.060696, 42.333952 ] } },
{ "type": "Feature", "properties": { "address": "1456 Woodward Ave, Detroit, MI 48226, United States", "name": "Cornerstone Barrel House", "rating": 4.5, "n_ratings": 726, "city": "Detroit", "black_owned": false }, "geometry": { "type": "Point", "coordinates": [ -83.0489526, 42.335014400000013 ] } },
{ "type": "Feature", "properties": { "address": "30 Clifford St, Detroit, MI 48226, United States", "name": "Downtown Louie's Grill", "rating": 4.3, "n_ratings": 944, "city": "Detroit", "black_owned": false }, "geometry": { "type": "Point", "coordinates": [ -83.0501171, 42.3347673 ] } },
{ "type": "Feature", "properties": { "address": "1245 Griswold St, Detroit, MI 48226, United States", "name": "Leila", "rating": 4.5, "n_ratings": 618, "city": "Detroit", "black_owned": false }, "geometry": { "type": "Point", "coordinates": [ -83.0500514, 42.333169 ] } },
{ "type": "Feature", "properties": { "address": "660 Woodward Ave #110, Detroit, MI 48226, United States", "name": "Lunchtime Global", "rating": 4.3, "n_ratings": 234, "city": "Detroit", "black_owned": false }, "geometry": { "type": "Point", "coordinates": [ -83.0451272, 42.3306094 ] } },
{ "type": "Feature", "properties": { "address": "660 Woodward Ave, Detroit, MI 48226, United States", "name": "Shake Shack First National Building - Downtown Detroit", "rating": 4.1, "n_ratings": 2328, "city": "Detroit", "black_owned": false }, "geometry": { "type": "Point", "coordinates": [ -83.045928, 42.331015 ] } },
{ "type": "Feature", "properties": { "address": "719 Griswold St Suite 140, Detroit, MI 48226, United States", "name": "Mike's Kabob Grille", "rating": 3.8, "n_ratings": 151, "city": "Detroit", "black_owned": false }, "geometry": { "type": "Point", "coordinates": [ -83.0477427, 42.330798 ] } },
{ "type": "Feature", "properties": { "address": "160 W Fort St, Detroit, MI 48226, United States", "name": "Maru Sushi & Grill", "rating": 4.5, "n_ratings": 1723, "city": "Detroit", "black_owned": false }, "geometry": { "type": "Point", "coordinates": [ -83.0483204, 42.330587 ] } },
{ "type": "Feature", "properties": { "address": "Murphy Telegraph Building, 155 W Congress St, Detroit, MI 48226, United States", "name": "London Chop House", "rating": 4.6, "n_ratings": 1232, "city": "Detroit", "black_owned": false }, "geometry": { "type": "Point", "coordinates": [ -83.0475993, 42.329323 ] } },
{ "type": "Feature", "properties": { "address": "712 Cass Ave, Detroit, MI 48226, United States", "name": "Bohemia at The Detroit Club", "rating": 3.5, "n_ratings": 11, "city": "Detroit", "black_owned": false }, "geometry": { "type": "Point", "coordinates": [ -83.0507786, 42.3296588 ] } },
{ "type": "Feature", "properties": { "address": "607 Shelby St Suite 700, Detroit, MI 48226, United States", "name": "Mccoy Eats", "rating": 0.0, "n_ratings": 0, "city": "Detroit", "black_owned": false }, "geometry": { "type": "Point", "coordinates": [ -83.0484296, 42.329286499999988 ] } },
{ "type": "Feature", "properties": { "address": "150 W Congress St, Detroit, MI 48226, United States", "name": "Caucus Club Detroit", "rating": 4.4, "n_ratings": 452, "city": "Detroit", "black_owned": false }, "geometry": { "type": "Point", "coordinates": [ -83.0475798, 42.3295341 ] } },
{ "type": "Feature", "properties": { "address": "GM Renaissance Center, 100 Renaissance Center A106, Detroit, MI 48243, United States", "name": "Salsarita's Fresh Mexican Grill", "rating": 4.0, "n_ratings": 49, "city": "Detroit", "black_owned": false }, "geometry": { "type": "Point", "coordinates": [ -83.0403546, 42.3295083 ] } },
{ "type": "Feature", "properties": { "address": "200 Renaissance Center, Detroit, MI 48243, United States", "name": "Coney Town", "rating": 3.3, "n_ratings": 38, "city": "Detroit", "black_owned": false }, "geometry": { "type": "Point", "coordinates": [ -83.0396946, 42.3294609 ] } },
{ "type": "Feature", "properties": { "address": "200 Renaissance Center, Detroit, MI 48243, United States", "name": "Gyroland", "rating": 3.1, "n_ratings": 8, "city": "Detroit", "black_owned": false }, "geometry": { "type": "Point", "coordinates": [ -83.0397248, 42.3294661 ] } },
{ "type": "Feature", "properties": { "address": "400 Renaissance Center floor 71, Detroit, MI 48243, United States", "name": "Highlands", "rating": 4.5, "n_ratings": 604, "city": "Detroit", "black_owned": false }, "geometry": { "type": "Point", "coordinates": [ -83.0395867, 42.3288295 ] } },
{ "type": "Feature", "properties": { "address": "333 E Jefferson Ave, Detroit, MI 48226, United States", "name": "IHOP", "rating": 3.6, "n_ratings": 407, "city": "Detroit", "black_owned": false }, "geometry": { "type": "Point", "coordinates": [ -83.0416841, 42.3305356 ] } },
{ "type": "Feature", "properties": { "address": "800 Woodward Ave, Detroit, MI 48226, United States", "name": "Parc", "rating": 4.6, "n_ratings": 3049, "city": "Detroit", "black_owned": false }, "geometry": { "type": "Point", "coordinates": [ -83.0465629, 42.3314128 ] } },
{ "type": "Feature", "properties": { "address": "400 Renaissance Center, Detroit, MI 48243, United States", "name": "42 Degrees North", "rating": 4.4, "n_ratings": 27, "city": "Detroit", "black_owned": false }, "geometry": { "type": "Point", "coordinates": [ -83.0395496, 42.3287288 ] } },
{ "type": "Feature", "properties": { "address": "1340 Atwater St, Detroit, MI 48207, United States", "name": "Cafe Classics", "rating": 3.5, "n_ratings": 6, "city": "Detroit", "black_owned": false }, "geometry": { "type": "Point", "coordinates": [ -83.0320124, 42.3304412 ] } },
{ "type": "Feature", "properties": { "address": "Renaissance Center, Detroit, MI 48243, United States", "name": "Burger King", "rating": 3.5, "n_ratings": 123, "city": "Detroit", "black_owned": false }, "geometry": { "type": "Point", "coordinates": [ -83.0399835, 42.3296721 ] } },
{ "type": "Feature", "properties": { "address": "519 E Jefferson Ave, Detroit, MI 48226, United States", "name": "Sloppy Crab Restaurant", "rating": 3.1, "n_ratings": 392, "city": "Detroit", "black_owned": false }, "geometry": { "type": "Point", "coordinates": [ -83.0397157, 42.3311225 ] } },
{ "type": "Feature", "properties": { "address": "454 E Lafayette St, Detroit, MI 48226, United States", "name": "Loco's Tex-Mex Grille", "rating": 4.0, "n_ratings": 722, "city": "Detroit", "black_owned": false }, "geometry": { "type": "Point", "coordinates": [ -83.0420417, 42.3338907 ] } },
{ "type": "Feature", "properties": { "address": "300 Renaissance Center Suite 1304, Detroit, MI 48243, United States", "name": "Potbelly", "rating": 4.0, "n_ratings": 79, "city": "Detroit", "black_owned": false }, "geometry": { "type": "Point", "coordinates": [ -83.0384452, 42.3289097 ] } },
{ "type": "Feature", "properties": { "address": "400 Monroe St #8th, Detroit, MI 48226, United States", "name": "Fishbone's", "rating": 4.2, "n_ratings": 5155, "city": "Detroit", "black_owned": false }, "geometry": { "type": "Point", "coordinates": [ -83.0434374, 42.334417599999988 ] } },
{ "type": "Feature", "properties": { "address": "558 Monroe St, Detroit, MI 48226, United States", "name": "Pegasus Taverna", "rating": 4.3, "n_ratings": 3329, "city": "Detroit", "black_owned": false }, "geometry": { "type": "Point", "coordinates": [ -83.0415378, 42.3351347 ] } },
{ "type": "Feature", "properties": { "address": "525 Monroe St, Detroit, MI 48226, United States", "name": "Golden Fleece Restaurant", "rating": 4.3, "n_ratings": 1536, "city": "Detroit", "black_owned": false }, "geometry": { "type": "Point", "coordinates": [ -83.0421371, 42.3352594 ] } },
{ "type": "Feature", "properties": { "address": "508 Monroe St, Detroit, MI 48226, United States", "name": "Five Guys", "rating": 4.3, "n_ratings": 1242, "city": "Detroit", "black_owned": false }, "geometry": { "type": "Point", "coordinates": [ -83.0422986, 42.3348725 ] } },
{ "type": "Feature", "properties": { "address": "2684 E Jefferson Ave, Detroit, MI 48207, United States", "name": "Bucharest Grill", "rating": 4.3, "n_ratings": 3248, "city": "Detroit", "black_owned": false }, "geometry": { "type": "Point", "coordinates": [ -83.0207982, 42.3385463 ] } },
{ "type": "Feature", "properties": { "address": "300 River Pl Dr, Detroit, MI 48207, United States", "name": "The Rattlesnake Club", "rating": 4.4, "n_ratings": 506, "city": "Detroit", "black_owned": false }, "geometry": { "type": "Point", "coordinates": [ -83.0172624, 42.3360112 ] } },
{ "type": "Feature", "properties": { "address": "6540 Evergreen Rd, Detroit, MI 48228, United States", "name": "Pizza & Fish Express", "rating": 4.3, "n_ratings": 332, "city": "Detroit", "black_owned": false }, "geometry": { "type": "Point", "coordinates": [ -83.2351024, 42.3392722 ] } },
{ "type": "Feature", "properties": { "address": "19240 W Warren Ave, Detroit, MI 48228, United States", "name": "Manhattan Fish & Chicken", "rating": 4.3, "n_ratings": 254, "city": "Detroit", "black_owned": false }, "geometry": { "type": "Point", "coordinates": [ -83.2290299, 42.3434493 ] } },
{ "type": "Feature", "properties": { "address": "6593 Greenfield Rd, Detroit, MI 48228, United States", "name": "Hawilo Grill", "rating": 4.5, "n_ratings": 378, "city": "Detroit", "black_owned": false }, "geometry": { "type": "Point", "coordinates": [ -83.1963912, 42.339489 ] } },
{ "type": "Feature", "properties": { "address": "5238 Lawndale St, Detroit, MI 48210, United States", "name": "Snacktified Munch", "rating": 0.0, "n_ratings": 0, "city": "Detroit", "black_owned": false }, "geometry": { "type": "Point", "coordinates": [ -83.1495849, 42.3316654 ] } },
{ "type": "Feature", "properties": { "address": "7340 McGraw Ave, Detroit, MI 48210, United States", "name": "Asty Time Dominican Cuisine", "rating": 4.8, "n_ratings": 482, "city": "Detroit", "black_owned": false }, "geometry": { "type": "Point", "coordinates": [ -83.1382017, 42.3367086 ] } },
{ "type": "Feature", "properties": { "address": "7300 Michigan Ave, Detroit, MI 48210, United States", "name": "Cito's sub station", "rating": 4.6, "n_ratings": 10, "city": "Detroit", "black_owned": false }, "geometry": { "type": "Point", "coordinates": [ -83.1337596, 42.3314666 ] } },
{ "type": "Feature", "properties": { "address": "5000 Livernois, Detroit, MI 48210, United States", "name": "Las Delicias", "rating": 5.0, "n_ratings": 10, "city": "Detroit", "black_owned": false }, "geometry": { "type": "Point", "coordinates": [ -83.1237937, 42.3367087 ] } },
{ "type": "Feature", "properties": { "address": "6680 Michigan Ave, Detroit, MI 48210, United States", "name": "Tacos El Guero Street Truck", "rating": 4.9, "n_ratings": 8, "city": "Detroit", "black_owned": false }, "geometry": { "type": "Point", "coordinates": [ -83.1260457, 42.3313497 ] } },
{ "type": "Feature", "properties": { "address": "6339 Pelouze St, Detroit, MI 48210, United States", "name": "AmeTacos", "rating": 4.9, "n_ratings": 32, "city": "Detroit", "black_owned": false }, "geometry": { "type": "Point", "coordinates": [ -83.1239838, 42.3347124 ] } },
{ "type": "Feature", "properties": { "address": "4963 Livernois, Detroit, MI 48210, United States", "name": "Crazy Taco", "rating": 4.7, "n_ratings": 40, "city": "Detroit", "black_owned": false }, "geometry": { "type": "Point", "coordinates": [ -83.1246699, 42.3363839 ] } },
{ "type": "Feature", "properties": { "address": "4834 Michigan Ave, Detroit, MI 48210, United States", "name": "Sra. Judith", "rating": 4.7, "n_ratings": 3, "city": "Detroit", "black_owned": false }, "geometry": { "type": "Point", "coordinates": [ -83.1090936, 42.3313709 ] } },
{ "type": "Feature", "properties": { "address": "3109 Roosevelt St, Detroit, MI 48216, United States", "name": "Sakura Hibachi Grill", "rating": 4.9, "n_ratings": 84, "city": "Detroit", "black_owned": false }, "geometry": { "type": "Point", "coordinates": [ -83.095341499999989, 42.3326729 ] } },
{ "type": "Feature", "properties": { "address": "3641 Grand River Ave, Detroit, MI 48208, United States", "name": "Motor City Grill", "rating": 4.0, "n_ratings": 741, "city": "Detroit", "black_owned": false }, "geometry": { "type": "Point", "coordinates": [ -83.0747165, 42.342558 ] } },
{ "type": "Feature", "properties": { "address": "2100 Michigan Ave, Detroit, MI 48216, United States", "name": "Ima Izakaya", "rating": 4.6, "n_ratings": 1404, "city": "Detroit", "black_owned": false }, "geometry": { "type": "Point", "coordinates": [ -83.0753548, 42.3316068 ] } },
{ "type": "Feature", "properties": { "address": "2746 Vermont St, Detroit, MI 48216, United States", "name": "The Pink Flamingo", "rating": 4.9, "n_ratings": 60, "city": "Detroit", "black_owned": false }, "geometry": { "type": "Point", "coordinates": [ -83.0755226, 42.3355934 ] } },
{ "type": "Feature", "properties": { "address": "2901 Grand River Ave, Detroit, MI 48201, United States", "name": "The Lodge Diner", "rating": 4.0, "n_ratings": 566, "city": "Detroit", "black_owned": false }, "geometry": { "type": "Point", "coordinates": [ -83.0667269, 42.339308 ] } },
{ "type": "Feature", "properties": { "address": "1413 Brooklyn St, Detroit, MI 48226, United States", "name": "Mudgie's Deli and Wine Shop", "rating": 4.6, "n_ratings": 1672, "city": "Detroit", "black_owned": false }, "geometry": { "type": "Point", "coordinates": [ -83.0620089, 42.3290603 ] } },
{ "type": "Feature", "properties": { "address": "1384 Michigan Ave, Detroit, MI 48226, United States", "name": "Nemo's Bar", "rating": 4.5, "n_ratings": 1240, "city": "Detroit", "black_owned": false }, "geometry": { "type": "Point", "coordinates": [ -83.0653332, 42.3316119 ] } },
{ "type": "Feature", "properties": { "address": "436 W Columbia St, Detroit, MI 48201, United States", "name": "Bucharest Grill", "rating": 4.4, "n_ratings": 1564, "city": "Detroit", "black_owned": false }, "geometry": { "type": "Point", "coordinates": [ -83.0567047, 42.337012 ] } },
{ "type": "Feature", "properties": { "address": "1254 Michigan Ave, Detroit, MI 48226, United States", "name": "Lager House", "rating": 4.5, "n_ratings": 902, "city": "Detroit", "black_owned": false }, "geometry": { "type": "Point", "coordinates": [ -83.0632436, 42.3316388 ] } },
{ "type": "Feature", "properties": { "address": "1777 3rd Ave, Detroit, MI 48226, United States", "name": "D.PRIME Steakhouse", "rating": 3.9, "n_ratings": 227, "city": "Detroit", "black_owned": false }, "geometry": { "type": "Point", "coordinates": [ -83.0591536, 42.3329722 ] } },
{ "type": "Feature", "properties": { "address": "1460 Michigan Ave, Detroit, MI 48216, United States", "name": "McShane's Irish Pub & Whiskey Bar", "rating": 4.4, "n_ratings": 1875, "city": "Detroit", "black_owned": false }, "geometry": { "type": "Point", "coordinates": [ -83.0667533, 42.3316626 ] } },
{ "type": "Feature", "properties": { "address": "1903 Grand River Ave, Detroit, MI 48226, United States", "name": "Lumen Detroit", "rating": 4.4, "n_ratings": 979, "city": "Detroit", "black_owned": false }, "geometry": { "type": "Point", "coordinates": [ -83.0548734, 42.3344991 ] } },
{ "type": "Feature", "properties": { "address": "400 Bagley St, Detroit, MI 48226, United States", "name": "Dagwood's Cafe & Diner", "rating": 4.3, "n_ratings": 98, "city": "Detroit", "black_owned": false }, "geometry": { "type": "Point", "coordinates": [ -83.0544249, 42.333643599999988 ] } },
{ "type": "Feature", "properties": { "address": "18 W Adams Ave, Detroit, MI 48226, United States", "name": "Brass Rail Pizza Bar", "rating": 4.1, "n_ratings": 1242, "city": "Detroit", "black_owned": false }, "geometry": { "type": "Point", "coordinates": [ -83.0514947, 42.3370424 ] } },
{ "type": "Feature", "properties": { "address": "313 Park Ave, Detroit, MI 48226, United States", "name": "The Statler French American Bistro", "rating": 4.5, "n_ratings": 228, "city": "Detroit", "black_owned": false }, "geometry": { "type": "Point", "coordinates": [ -83.0514302, 42.3357345 ] } },
{ "type": "Feature", "properties": { "address": "1777 3rd Ave, Detroit, MI 48226, United States", "name": "TAP at MGM Grand Detroit", "rating": 4.1, "n_ratings": 1618, "city": "Detroit", "black_owned": false }, "geometry": { "type": "Point", "coordinates": [ -83.0594, 42.333001 ] } },
{ "type": "Feature", "properties": { "address": "1230 Library St, Detroit, MI 48226, United States", "name": "Mootz Pizzeria + Bar", "rating": 4.6, "n_ratings": 1774, "city": "Detroit", "black_owned": false }, "geometry": { "type": "Point", "coordinates": [ -83.0468041, 42.3343576 ] } },
{ "type": "Feature", "properties": { "address": "1226 Griswold St, Detroit, MI 48226, United States", "name": "Go! Sy Thai", "rating": 4.2, "n_ratings": 333, "city": "Detroit", "black_owned": false }, "geometry": { "type": "Point", "coordinates": [ -83.0490657, 42.3331634 ] } },
{ "type": "Feature", "properties": { "address": "735 Beaubien Blvd, Detroit, MI 48226, United States", "name": "Niki's Pizza", "rating": 4.2, "n_ratings": 2092, "city": "Detroit", "black_owned": false }, "geometry": { "type": "Point", "coordinates": [ -83.0418814, 42.3336695 ] } },
{ "type": "Feature", "properties": { "address": "101 Cadillac Square, Detroit, MI 48226, United States", "name": "Cadillac Square Diner", "rating": 4.3, "n_ratings": 558, "city": "Detroit", "black_owned": false }, "geometry": { "type": "Point", "coordinates": [ -83.0443457, 42.3318353 ] } },
{ "type": "Feature", "properties": { "address": "555 E Lafayette St, Detroit, MI 48226, United States", "name": "Monroe Market", "rating": 3.4, "n_ratings": 16, "city": "Detroit", "black_owned": false }, "geometry": { "type": "Point", "coordinates": [ -83.04124, 42.334622 ] } },
{ "type": "Feature", "properties": { "address": "330 Monroe St, Detroit, MI 48226, United States", "name": "Ham Shop", "rating": 4.2, "n_ratings": 933, "city": "Detroit", "black_owned": false }, "geometry": { "type": "Point", "coordinates": [ -83.044305799999989, 42.3340689 ] } },
{ "type": "Feature", "properties": { "address": "660 Woodward Ave Shop 16, Detroit, MI 48226, United States", "name": "Subway", "rating": 3.7, "n_ratings": 123, "city": "Detroit", "black_owned": false }, "geometry": { "type": "Point", "coordinates": [ -83.0456643, 42.3312433 ] } },
{ "type": "Feature", "properties": { "address": "400 Renaissance Center #2500, Detroit, MI 48243, United States", "name": "GMRenCen Diner", "rating": 4.0, "n_ratings": 81, "city": "Detroit", "black_owned": false }, "geometry": { "type": "Point", "coordinates": [ -83.040106, 42.329166099999988 ] } },
{ "type": "Feature", "properties": { "address": "612 Woodward Ave, Detroit, MI 48226, United States", "name": "Grand Trunk Pub", "rating": 4.3, "n_ratings": 2257, "city": "Detroit", "black_owned": false }, "geometry": { "type": "Point", "coordinates": [ -83.0456204, 42.3305957 ] } },
{ "type": "Feature", "properties": { "address": "1400 Woodward Ave, Detroit, MI 48226, United States", "name": "San Morello", "rating": 4.3, "n_ratings": 1213, "city": "Detroit", "black_owned": false }, "geometry": { "type": "Point", "coordinates": [ -83.0486054, 42.334325799999988 ] } },
{ "type": "Feature", "properties": { "address": "777 Woodward Ave Ste 150 Ste 150, Detroit, MI 48226, United States", "name": "Potbelly", "rating": 3.9, "n_ratings": 170, "city": "Detroit", "black_owned": false }, "geometry": { "type": "Point", "coordinates": [ -83.0474648, 42.331257 ] } },
{ "type": "Feature", "properties": { "address": "60 Cadillac Square, Detroit, MI 48226, United States", "name": "Tasteful Touch", "rating": 0.0, "n_ratings": 0, "city": "Detroit", "black_owned": false }, "geometry": { "type": "Point", "coordinates": [ -83.044958799999989, 42.3316454 ] } },
{ "type": "Feature", "properties": { "address": "400 Renaissance Dr W, Detroit, MI 48243, United States", "name": "Volt", "rating": 3.4, "n_ratings": 35, "city": "Detroit", "black_owned": false }, "geometry": { "type": "Point", "coordinates": [ -83.0399867, 42.3283724 ] } },
{ "type": "Feature", "properties": { "address": "400 E Congress St, Detroit, MI 48226, United States", "name": "Sweetwater Tavern", "rating": 4.1, "n_ratings": 4091, "city": "Detroit", "black_owned": false }, "geometry": { "type": "Point", "coordinates": [ -83.0416966, 42.3316532 ] } },
{ "type": "Feature", "properties": { "address": "1326 E Jefferson Ave, Detroit, MI 48207, United States", "name": "Clique", "rating": 4.6, "n_ratings": 1166, "city": "Detroit", "black_owned": false }, "geometry": { "type": "Point", "coordinates": [ -83.0334794, 42.3332766 ] } },
{ "type": "Feature", "properties": { "address": "71st Floor Level 3, 400 Renaissance Center #2500, Detroit, MI 48243, United States", "name": "Hearth 71", "rating": 4.6, "n_ratings": 17, "city": "Detroit", "black_owned": false }, "geometry": { "type": "Point", "coordinates": [ -83.0397829, 42.3290441 ] } },
{ "type": "Feature", "properties": { "address": "573 Monroe St, Detroit, MI 48226, United States", "name": "Redsmoke Barbeque", "rating": 4.2, "n_ratings": 2369, "city": "Detroit", "black_owned": false }, "geometry": { "type": "Point", "coordinates": [ -83.0413755, 42.3355244 ] } },
{ "type": "Feature", "properties": { "address": "1985 E Jefferson Ave, Detroit, MI 48207, United States", "name": "Main Street Grill & Coney Island", "rating": 4.4, "n_ratings": 655, "city": "Detroit", "black_owned": false }, "geometry": { "type": "Point", "coordinates": [ -83.026840299999989, 42.3366365 ] } },
{ "type": "Feature", "properties": { "address": "1475 E Jefferson Ave, Detroit, MI 48207, United States", "name": "Pizzaman Pizza", "rating": 4.2, "n_ratings": 14, "city": "Detroit", "black_owned": false }, "geometry": { "type": "Point", "coordinates": [ -83.0322656, 42.3343215 ] } },
{ "type": "Feature", "properties": { "address": "1541 E Lafayette St, Detroit, MI 48207, United States", "name": "Bai Mai Thai", "rating": 4.4, "n_ratings": 635, "city": "Detroit", "black_owned": false }, "geometry": { "type": "Point", "coordinates": [ -83.0330503, 42.3384904 ] } },
{ "type": "Feature", "properties": { "address": "201 Joseph Campau Ave, Detroit, MI 48207, United States", "name": "Andrews on the Corner", "rating": 4.6, "n_ratings": 640, "city": "Detroit", "black_owned": false }, "geometry": { "type": "Point", "coordinates": [ -83.01796, 42.336483 ] } },
{ "type": "Feature", "properties": { "address": "2664 E Jefferson Ave, Detroit, MI 48207, United States", "name": "Crack & Sizzle", "rating": 4.4, "n_ratings": 221, "city": "Detroit", "black_owned": false }, "geometry": { "type": "Point", "coordinates": [ -83.020339299999989, 42.3381245 ] } },
{ "type": "Feature", "properties": { "address": "8009 E Jefferson Ave, Detroit, MI 48214, United States", "name": "Detroit Grill & Chill", "rating": 4.6, "n_ratings": 245, "city": "Detroit", "black_owned": false }, "geometry": { "type": "Point", "coordinates": [ -82.9948409, 42.3522111 ] } },
{ "type": "Feature", "properties": { "address": "3171 E Jefferson Ave, Detroit, MI 48226, United States", "name": "PizzaPapalis of Rivertown", "rating": 4.3, "n_ratings": 1446, "city": "Detroit", "black_owned": false }, "geometry": { "type": "Point", "coordinates": [ -83.0170184, 42.3412338 ] } },
{ "type": "Feature", "properties": { "address": "18940 W Warren Ave, Detroit, MI 48228, United States", "name": "Mr. Steve's Pizza", "rating": 4.0, "n_ratings": 190, "city": "Detroit", "black_owned": false }, "geometry": { "type": "Point", "coordinates": [ -83.22513, 42.3434792 ] } },
{ "type": "Feature", "properties": { "address": "16835 W Warren Ave, Detroit, MI 48228, United States", "name": "L George's Coney Island", "rating": 3.8, "n_ratings": 1295, "city": "Detroit", "black_owned": false }, "geometry": { "type": "Point", "coordinates": [ -83.2105377, 42.3432071 ] } },
{ "type": "Feature", "properties": { "address": "17720 W Warren Ave, Detroit, MI 48228, United States", "name": "Subway", "rating": 3.7, "n_ratings": 103, "city": "Detroit", "black_owned": false }, "geometry": { "type": "Point", "coordinates": [ -83.215189, 42.3437586 ] } },
{ "type": "Feature", "properties": { "address": "16960 W Warren Ave, Detroit, MI 48228, United States", "name": "Bucks Kitchen", "rating": 4.0, "n_ratings": 1, "city": "Detroit", "black_owned": false }, "geometry": { "type": "Point", "coordinates": [ -83.2118621, 42.3436033 ] } },
{ "type": "Feature", "properties": { "address": "6551 Greenfield Rd, Detroit, MI 48228, United States", "name": "Shamiat", "rating": 4.7, "n_ratings": 246, "city": "Detroit", "black_owned": false }, "geometry": { "type": "Point", "coordinates": [ -83.1965056, 42.3389345 ] } },
{ "type": "Feature", "properties": { "address": "6531 Greenfield Rd, Detroit, MI 48228, United States", "name": "Halal Pizza", "rating": 4.3, "n_ratings": 605, "city": "Detroit", "black_owned": false }, "geometry": { "type": "Point", "coordinates": [ -83.1964662, 42.3384976 ] } },
{ "type": "Feature", "properties": { "address": "6911 Greenfield Rd, Detroit, MI 48228, United States", "name": "Exotic Eats", "rating": 4.3, "n_ratings": 56, "city": "Detroit", "black_owned": false }, "geometry": { "type": "Point", "coordinates": [ -83.1966181, 42.3430828 ] } },
{ "type": "Feature", "properties": { "address": "6749 Greenfield Rd, Detroit, MI 48228, United States", "name": "Foul w Fatteh", "rating": 4.7, "n_ratings": 69, "city": "Detroit", "black_owned": false }, "geometry": { "type": "Point", "coordinates": [ -83.1964889, 42.3408064 ] } },
{ "type": "Feature", "properties": { "address": "5015 Livernois, Detroit, MI 48210, United States", "name": "Glorias Kitchen", "rating": 3.6, "n_ratings": 9, "city": "Detroit", "black_owned": false }, "geometry": { "type": "Point", "coordinates": [ -83.1250378, 42.3364041 ] } },
{ "type": "Feature", "properties": { "address": "5015 Livernois, Detroit, MI 48210, United States", "name": "Subway", "rating": 1.0, "n_ratings": 1, "city": "Detroit", "black_owned": false }, "geometry": { "type": "Point", "coordinates": [ -83.1251078, 42.3364581 ] } },
{ "type": "Feature", "properties": { "address": "6211 W Warren Ave, Detroit, MI 48210, United States", "name": "Speedy's Coney Island", "rating": 3.9, "n_ratings": 321, "city": "Detroit", "black_owned": false }, "geometry": { "type": "Point", "coordinates": [ -83.1294318, 42.3443723 ] } },
{ "type": "Feature", "properties": { "address": "3845 W Warren Ave, Detroit, MI 48208, United States", "name": "Vicki's Bar-B-Q", "rating": 4.0, "n_ratings": 883, "city": "Detroit", "black_owned": false }, "geometry": { "type": "Point", "coordinates": [ -83.1050194, 42.3445527 ] } },
{ "type": "Feature", "properties": { "address": "4154 3rd Ave, Detroit, MI 48201, United States", "name": "Detroit Eatery Midtown", "rating": 4.2, "n_ratings": 412, "city": "Detroit", "black_owned": false }, "geometry": { "type": "Point", "coordinates": [ -83.0675552, 42.3489727 ] } },
{ "type": "Feature", "properties": { "address": "2901 Grand River Ave, Detroit, MI 48216, United States", "name": "Iridescence - Event Space at MotorCity Casino Hotel", "rating": 4.5, "n_ratings": 743, "city": "Detroit", "black_owned": false }, "geometry": { "type": "Point", "coordinates": [ -83.0684286, 42.338320499999988 ] } },
{ "type": "Feature", "properties": { "address": "488 Selden St, Detroit, MI 48201, United States", "name": "Honest John's", "rating": 4.3, "n_ratings": 3249, "city": "Detroit", "black_owned": false }, "geometry": { "type": "Point", "coordinates": [ -83.0639399, 42.347726 ] } },
{ "type": "Feature", "properties": { "address": "420 Peterboro St, Detroit, MI 48201, United States", "name": "The Peterboro", "rating": 4.2, "n_ratings": 1002, "city": "Detroit", "black_owned": false }, "geometry": { "type": "Point", "coordinates": [ -83.0606944, 42.3443373 ] } },
{ "type": "Feature", "properties": { "address": "47 Watson St, Detroit, MI 48201, United States", "name": "Grey Ghost Detroit", "rating": 4.6, "n_ratings": 2268, "city": "Detroit", "black_owned": false }, "geometry": { "type": "Point", "coordinates": [ -83.0555796, 42.3451748 ] } },
{ "type": "Feature", "properties": { "address": "114 W Adams Ave Suite 200, Detroit, MI 48226, United States", "name": "PAO Detroit", "rating": 4.1, "n_ratings": 634, "city": "Detroit", "black_owned": false }, "geometry": { "type": "Point", "coordinates": [ -83.0530647, 42.3363247 ] } },
{ "type": "Feature", "properties": { "address": "77 W Columbia St, Detroit, MI 48201, United States", "name": "Sahara Restaurant & Grill- Bar The District Detroit", "rating": 4.4, "n_ratings": 84, "city": "Detroit", "black_owned": false }, "geometry": { "type": "Point", "coordinates": [ -83.0529914, 42.3377189 ] } },
{ "type": "Feature", "properties": { "address": "2131 Woodward Ave, Detroit, MI 48201, United States", "name": "Mom's Spaghetti", "rating": 4.4, "n_ratings": 1597, "city": "Detroit", "black_owned": false }, "geometry": { "type": "Point", "coordinates": [ -83.0517999, 42.3379758 ] } },
{ "type": "Feature", "properties": { "address": "2131 Woodward Ave, Detroit, MI 48201, United States", "name": "Union Assembly", "rating": 4.1, "n_ratings": 439, "city": "Detroit", "black_owned": false }, "geometry": { "type": "Point", "coordinates": [ -83.0519159, 42.3381396 ] } },
{ "type": "Feature", "properties": { "address": "2482 Clifford St, Detroit, MI 48201, United States", "name": "Harry's Detroit Bar & Grill", "rating": 4.4, "n_ratings": 1695, "city": "Detroit", "black_owned": false }, "geometry": { "type": "Point", "coordinates": [ -83.05627, 42.3392838 ] } },
{ "type": "Feature", "properties": { "address": "218 E Grand River Ave, Detroit, MI 48226, United States", "name": "Jose's Tacos", "rating": 4.6, "n_ratings": 685, "city": "Detroit", "black_owned": false }, "geometry": { "type": "Point", "coordinates": [ -83.0466431, 42.3356383 ] } },
{ "type": "Feature", "properties": { "address": "1241 Woodward Ave, Detroit, MI 48226, United States", "name": "The Hudson Cafe", "rating": 4.4, "n_ratings": 2470, "city": "Detroit", "black_owned": false }, "geometry": { "type": "Point", "coordinates": [ -83.0484795, 42.3334268 ] } },
{ "type": "Feature", "properties": { "address": "535 Monroe St, Detroit, MI 48226, United States", "name": "The Greek", "rating": 4.4, "n_ratings": 913, "city": "Detroit", "black_owned": false }, "geometry": { "type": "Point", "coordinates": [ -83.0420469, 42.335373399999987 ] } },
{ "type": "Feature", "properties": { "address": "440 Clinton St, Detroit, MI 48226, United States", "name": "Harbor House Detroit", "rating": 4.0, "n_ratings": 1922, "city": "Detroit", "black_owned": false }, "geometry": { "type": "Point", "coordinates": [ -83.0437308, 42.3361176 ] } },
{ "type": "Feature", "properties": { "address": "1218 Randolph Street, Detroit, MI 48226, United States", "name": "Buffalo Wild Wings", "rating": 3.7, "n_ratings": 2680, "city": "Detroit", "black_owned": false }, "geometry": { "type": "Point", "coordinates": [ -83.0447259, 42.3343053 ] } },
{ "type": "Feature", "properties": { "address": "2701 E Jefferson Ave, Detroit, MI 48207, United States", "name": "Detroit House of Pancakes", "rating": 3.7, "n_ratings": 378, "city": "Detroit", "black_owned": false }, "geometry": { "type": "Point", "coordinates": [ -83.0214094, 42.3391275 ] } },
{ "type": "Feature", "properties": { "address": "3444 E Jefferson Ave, Detroit, MI 48207, United States", "name": "Peking Express", "rating": 3.5, "n_ratings": 178, "city": "Detroit", "black_owned": false }, "geometry": { "type": "Point", "coordinates": [ -83.0115442, 42.3423289 ] } },
{ "type": "Feature", "properties": { "address": "6601 E Jefferson Ave, Detroit, MI 48207, United States", "name": "Wendy's", "rating": 3.5, "n_ratings": 1722, "city": "Detroit", "black_owned": false }, "geometry": { "type": "Point", "coordinates": [ -83.0061179, 42.3457508 ] } },
{ "type": "Feature", "properties": { "address": "3242 E Jefferson Ave, Detroit, MI 48207, United States", "name": "Bread Basket Deli Downtown Detroit", "rating": 4.1, "n_ratings": 508, "city": "Detroit", "black_owned": false }, "geometry": { "type": "Point", "coordinates": [ -83.015321, 42.341169699999988 ] } },
{ "type": "Feature", "properties": { "address": "6905 E Jefferson Ave, Detroit, MI 48207, United States", "name": "Pekin Pavillion", "rating": 4.0, "n_ratings": 323, "city": "Detroit", "black_owned": false }, "geometry": { "type": "Point", "coordinates": [ -83.0038942, 42.3465853 ] } },
{ "type": "Feature", "properties": { "address": "6412 E Jefferson Ave, Detroit, MI 48207, United States", "name": "Happy's Pizza", "rating": 3.2, "n_ratings": 554, "city": "Detroit", "black_owned": false }, "geometry": { "type": "Point", "coordinates": [ -83.0085207, 42.3438171 ] } },
{ "type": "Feature", "properties": { "address": "16960 W Warren Ave, Detroit, MI 48228, United States", "name": "Addictive Food Bar", "rating": 0.0, "n_ratings": 0, "city": "Detroit", "black_owned": false }, "geometry": { "type": "Point", "coordinates": [ -83.2118621, 42.3436033 ] } },
{ "type": "Feature", "properties": { "address": "18400 W Warren Ave, Detroit, MI 48228, United States", "name": "Captain Jay's Fish & Chicken", "rating": 3.7, "n_ratings": 788, "city": "Detroit", "black_owned": false }, "geometry": { "type": "Point", "coordinates": [ -83.2199508, 42.343555 ] } },
{ "type": "Feature", "properties": { "address": "17630 W Warren Ave, Detroit, MI 48228, United States", "name": "Barakah Kabab Inc.", "rating": 0.0, "n_ratings": 0, "city": "Detroit", "black_owned": false }, "geometry": { "type": "Point", "coordinates": [ -83.2141989, 42.3435494 ] } },
{ "type": "Feature", "properties": { "address": "16645 W Warren Ave, Detroit, MI 48228, United States", "name": "A.M Fish & Chicken Market", "rating": 4.7, "n_ratings": 55, "city": "Detroit", "black_owned": false }, "geometry": { "type": "Point", "coordinates": [ -83.2095553, 42.3432292 ] } },
{ "type": "Feature", "properties": { "address": "16143 W Warren Ave, Detroit, MI 48228, United States", "name": "Detroit Fish & Chicken", "rating": 3.6, "n_ratings": 14, "city": "Detroit", "black_owned": false }, "geometry": { "type": "Point", "coordinates": [ -83.2033048, 42.3433071 ] } },
{ "type": "Feature", "properties": { "address": "16032 W Warren Ave, Detroit, MI 48228, United States", "name": "Elarabi Restaurant", "rating": 4.3, "n_ratings": 68, "city": "Detroit", "black_owned": false }, "geometry": { "type": "Point", "coordinates": [ -83.2018689, 42.3437736 ] } },
{ "type": "Feature", "properties": { "address": "15621 W Warren Ave, Detroit, MI 48228, United States", "name": "Chef Malek", "rating": 4.1, "n_ratings": 94, "city": "Detroit", "black_owned": false }, "geometry": { "type": "Point", "coordinates": [ -83.1979356, 42.3434011 ] } },
{ "type": "Feature", "properties": { "address": "6827 Greenfield Rd, Detroit, MI 48228, United States", "name": "Bros Burger Joint", "rating": 4.7, "n_ratings": 73, "city": "Detroit", "black_owned": false }, "geometry": { "type": "Point", "coordinates": [ -83.1964363, 42.3418483 ] } },
{ "type": "Feature", "properties": { "address": "6781 Greenfield Rd, Detroit, MI 48228, United States", "name": "Subway", "rating": 4.4, "n_ratings": 155, "city": "Detroit", "black_owned": false }, "geometry": { "type": "Point", "coordinates": [ -83.1965891, 42.3412661 ] } },
{ "type": "Feature", "properties": { "address": "15731 W Warren Ave, Detroit, MI 48228, United States", "name": "Abu NAWAS restaurant مطعم ابو نؤاس", "rating": 5.0, "n_ratings": 7, "city": "Detroit", "black_owned": false }, "geometry": { "type": "Point", "coordinates": [ -83.1993646, 42.3434941 ] } },
{ "type": "Feature", "properties": { "address": "7645 Livernois, Detroit, MI 48210, United States", "name": "Shottys kitchen", "rating": 4.9, "n_ratings": 93, "city": "Detroit", "black_owned": false }, "geometry": { "type": "Point", "coordinates": [ -83.1353506, 42.3509807 ] } },
{ "type": "Feature", "properties": { "address": "6301 W Warren Ave, Detroit, MI 48210, United States", "name": "Kitchen Trap", "rating": 3.4, "n_ratings": 7, "city": "Detroit", "black_owned": false }, "geometry": { "type": "Point", "coordinates": [ -83.1311894, 42.344403 ] } },
{ "type": "Feature", "properties": { "address": "4222 2nd Ave, Detroit, MI 48201, United States", "name": "Mario's Restaurant", "rating": 4.2, "n_ratings": 1501, "city": "Detroit", "black_owned": false }, "geometry": { "type": "Point", "coordinates": [ -83.065704, 42.350337 ] } },
{ "type": "Feature", "properties": { "address": "3921 2nd Ave, Detroit, MI 48201, United States", "name": "Selden Standard", "rating": 4.7, "n_ratings": 1895, "city": "Detroit", "black_owned": false }, "geometry": { "type": "Point", "coordinates": [ -83.0650178, 42.3478001 ] } },
{ "type": "Feature", "properties": { "address": "4101 3rd Ave, Detroit, MI 48201, United States", "name": "Gus's World Famous Fried Chicken", "rating": 4.3, "n_ratings": 1915, "city": "Detroit", "black_owned": false }, "geometry": { "type": "Point", "coordinates": [ -83.0675109, 42.3479867 ] } },
{ "type": "Feature", "properties": { "address": "4163 Cass Ave, Detroit, MI 48201, United States", "name": "Royale with Cheese", "rating": 4.5, "n_ratings": 2675, "city": "Detroit", "black_owned": false }, "geometry": { "type": "Point", "coordinates": [ -83.0635541, 42.350276099999988 ] } },
{ "type": "Feature", "properties": { "address": "2901 Grand River Ave, Detroit, MI 48201, United States", "name": "Assembly Line Buffet", "rating": 4.2, "n_ratings": 544, "city": "Detroit", "black_owned": false }, "geometry": { "type": "Point", "coordinates": [ -83.0674669, 42.3397136 ] } },
{ "type": "Feature", "properties": { "address": "438 Selden St, Detroit, MI 48201, United States", "name": "SheWolf Pastificio & Bar", "rating": 4.6, "n_ratings": 812, "city": "Detroit", "black_owned": false }, "geometry": { "type": "Point", "coordinates": [ -83.063071, 42.3480974 ] } },
{ "type": "Feature", "properties": { "address": "474 Peterboro St, Detroit, MI 48201, United States", "name": "Bangkok 96 Street Food", "rating": 4.4, "n_ratings": 144, "city": "Detroit", "black_owned": false }, "geometry": { "type": "Point", "coordinates": [ -83.0615918, 42.3441892 ] } },
{ "type": "Feature", "properties": { "address": "3433 Woodward Ave, Detroit, MI 48201, United States", "name": "Detroit One Coney Island Restaurant", "rating": 3.7, "n_ratings": 2689, "city": "Detroit", "black_owned": false }, "geometry": { "type": "Point", "coordinates": [ -83.0570682, 42.3458054 ] } },
{ "type": "Feature", "properties": { "address": "3111 Woodward Ave, Detroit, MI 48201, United States", "name": "Pho Lucky Detroit - Midtown", "rating": 4.4, "n_ratings": 1019, "city": "Detroit", "black_owned": false }, "geometry": { "type": "Point", "coordinates": [ -83.056094300000012, 42.3443552 ] } },
{ "type": "Feature", "properties": { "address": "3100 Woodward Ave, Detroit, MI 48201, United States", "name": "Bakersfield", "rating": 4.4, "n_ratings": 1805, "city": "Detroit", "black_owned": false }, "geometry": { "type": "Point", "coordinates": [ -83.0560797, 42.3451623 ] } },
{ "type": "Feature", "properties": { "address": "66 W Columbia St, Detroit, MI 48201, United States", "name": "Frita Batidos Detroit", "rating": 4.7, "n_ratings": 284, "city": "Detroit", "black_owned": false }, "geometry": { "type": "Point", "coordinates": [ -83.0529972, 42.3379466 ] } },
{ "type": "Feature", "properties": { "address": "2515 Woodward Ave, Detroit, MI 48201, United States", "name": "Mike's Pizza Bar", "rating": 4.2, "n_ratings": 653, "city": "Detroit", "black_owned": false }, "geometry": { "type": "Point", "coordinates": [ -83.0539297, 42.3409738 ] } },
{ "type": "Feature", "properties": { "address": "2645 Woodward Ave, Detroit, MI 48201, United States", "name": "The Mixing Board", "rating": 4.0, "n_ratings": 21, "city": "Detroit", "black_owned": false }, "geometry": { "type": "Point", "coordinates": [ -83.0549598, 42.3419612 ] } },
{ "type": "Feature", "properties": { "address": "2645 Woodward Ave, Detroit, MI 48201, United States", "name": "UWM District Market", "rating": 4.1, "n_ratings": 87, "city": "Detroit", "black_owned": false }, "geometry": { "type": "Point", "coordinates": [ -83.0543162, 42.3415519 ] } },
{ "type": "Feature", "properties": { "address": "2301 Woodward Ave, Detroit, MI 48201, United States", "name": "Hockeytown Cafe", "rating": 3.8, "n_ratings": 1664, "city": "Detroit", "black_owned": false }, "geometry": { "type": "Point", "coordinates": [ -83.0526342, 42.3390241 ] } },
{ "type": "Feature", "properties": { "address": "Madison Building, 1565 Broadway St, Detroit, MI 48226, United States", "name": "Buddy's Pizza", "rating": 4.4, "n_ratings": 1241, "city": "Detroit", "black_owned": false }, "geometry": { "type": "Point", "coordinates": [ -83.0495584, 42.3361784 ] } },
{ "type": "Feature", "properties": { "address": "1538 Centre St, Detroit, MI 48226, United States", "name": "Vertical Detroit", "rating": 4.5, "n_ratings": 492, "city": "Detroit", "black_owned": false }, "geometry": { "type": "Point", "coordinates": [ -83.0472692, 42.3363373 ] } },
{ "type": "Feature", "properties": { "address": "1509 Broadway St, Detroit, MI 48226, United States", "name": "Albena", "rating": 4.6, "n_ratings": 76, "city": "Detroit", "black_owned": false }, "geometry": { "type": "Point", "coordinates": [ -83.0485165, 42.3357815 ] } },
{ "type": "Feature", "properties": { "address": "300 E Adams Ave, Detroit, MI 48226, United States", "name": "Elwood Bar & Grill", "rating": 4.3, "n_ratings": 292, "city": "Detroit", "black_owned": false }, "geometry": { "type": "Point", "coordinates": [ -83.0467148, 42.3386099 ] } },
{ "type": "Feature", "properties": { "address": "1445 Farmer St, Detroit, MI 48226, United States", "name": "Penny Red's", "rating": 3.9, "n_ratings": 370, "city": "Detroit", "black_owned": false }, "geometry": { "type": "Point", "coordinates": [ -83.048317200000014, 42.3348095 ] } },
{ "type": "Feature", "properties": { "address": "1326 Brush St, Detroit, MI 48226, United States", "name": "Basement Burger Bar", "rating": 4.4, "n_ratings": 2301, "city": "Detroit", "black_owned": false }, "geometry": { "type": "Point", "coordinates": [ -83.0443977, 42.335676199999988 ] } },
{ "type": "Feature", "properties": { "address": "501 Monroe St, Detroit, MI 48226, United States", "name": "DELMAR Detroit", "rating": 4.0, "n_ratings": 467, "city": "Detroit", "black_owned": false }, "geometry": { "type": "Point", "coordinates": [ -83.0423677, 42.3351622 ] } },
{ "type": "Feature", "properties": { "address": "555 E Lafayette St, Detroit, MI 48226, United States", "name": "Prism", "rating": 4.3, "n_ratings": 311, "city": "Detroit", "black_owned": false }, "geometry": { "type": "Point", "coordinates": [ -83.0406875, 42.3346977 ] } },
{ "type": "Feature", "properties": { "address": "3242 E Jefferson Ave, Detroit, MI 48207, United States", "name": "Seaviche Tacos & Bowls", "rating": 4.7, "n_ratings": 115, "city": "Detroit", "black_owned": false }, "geometry": { "type": "Point", "coordinates": [ -83.0152612, 42.3411449 ] } },
{ "type": "Feature", "properties": { "address": "3250 E Jefferson Ave, Detroit, MI 48207, United States", "name": "Tubby's Sub Shop", "rating": 3.9, "n_ratings": 457, "city": "Detroit", "black_owned": false }, "geometry": { "type": "Point", "coordinates": [ -83.0150125, 42.3412434 ] } },
{ "type": "Feature", "properties": { "address": "3424 E Jefferson Ave, Detroit, MI 48207, United States", "name": "Subway", "rating": 3.0, "n_ratings": 45, "city": "Detroit", "black_owned": false }, "geometry": { "type": "Point", "coordinates": [ -83.0118945, 42.3421689 ] } },
{ "type": "Feature", "properties": { "address": "3420 E Jefferson Ave, Detroit, MI 48207, United States", "name": "Jet's Pizza", "rating": 3.8, "n_ratings": 414, "city": "Detroit", "black_owned": false }, "geometry": { "type": "Point", "coordinates": [ -83.01202, 42.342127 ] } },
{ "type": "Feature", "properties": { "address": "7255 E Jefferson Ave, Detroit, MI 48214, United States", "name": "Krispy Krunchy Chicken", "rating": 4.3, "n_ratings": 249, "city": "Detroit", "black_owned": false }, "geometry": { "type": "Point", "coordinates": [ -83.000983100000013, 42.3480722 ] } },
{ "type": "Feature", "properties": { "address": "7869 E Jefferson Ave, Detroit, MI 48214, United States", "name": "Belle Isle Pizza", "rating": 4.4, "n_ratings": 380, "city": "Detroit", "black_owned": false }, "geometry": { "type": "Point", "coordinates": [ -82.995761, 42.3510595 ] } },
{ "type": "Feature", "properties": { "address": "14601 Riverside Blvd, Detroit, MI 48215, United States", "name": "Coriander Kitchen and Farm", "rating": 4.5, "n_ratings": 348, "city": "Detroit", "black_owned": false }, "geometry": { "type": "Point", "coordinates": [ -82.9322367, 42.3596112 ] } },
{ "type": "Feature", "properties": { "address": "20003 Joy Rd, Detroit, MI 48228, United States", "name": "L George's Coney Island", "rating": 3.8, "n_ratings": 1224, "city": "Detroit", "black_owned": false }, "geometry": { "type": "Point", "coordinates": [ -83.2361204, 42.3573579 ] } },
{ "type": "Feature", "properties": { "address": "16032 W Warren Ave, Detroit, MI 48228, United States", "name": "Edulis grill", "rating": 5.0, "n_ratings": 38, "city": "Detroit", "black_owned": false }, "geometry": { "type": "Point", "coordinates": [ -83.2018746, 42.3437734 ] } },
{ "type": "Feature", "properties": { "address": "4842 Grand River Ave, Detroit, MI 48208, United States", "name": "BARDA", "rating": 4.7, "n_ratings": 221, "city": "Detroit", "black_owned": false }, "geometry": { "type": "Point", "coordinates": [ -83.0880381, 42.3484605 ] } },
{ "type": "Feature", "properties": { "address": "1115 W Warren Ave, Detroit, MI 48201, United States", "name": "Dynasty Chinese Food Detroit", "rating": 3.8, "n_ratings": 502, "city": "Detroit", "black_owned": false }, "geometry": { "type": "Point", "coordinates": [ -83.0740516, 42.3527882 ] } },
{ "type": "Feature", "properties": { "address": "4240 Cass Ave #103, Detroit, MI 48201, United States", "name": "Go Sy Thai", "rating": 4.2, "n_ratings": 1056, "city": "Detroit", "black_owned": false }, "geometry": { "type": "Point", "coordinates": [ -83.0638387, 42.3515498 ] } },
{ "type": "Feature", "properties": { "address": "644 Selden St, Detroit, MI 48201, United States", "name": "Smith & Co.", "rating": 4.2, "n_ratings": 225, "city": "Detroit", "black_owned": false }, "geometry": { "type": "Point", "coordinates": [ -83.0655422, 42.347473 ] } },
{ "type": "Feature", "properties": { "address": "634 Selden St Unit A, Detroit, MI 48201, United States", "name": "Condado Tacos", "rating": 4.4, "n_ratings": 1415, "city": "Detroit", "black_owned": false }, "geometry": { "type": "Point", "coordinates": [ -83.0652638, 42.3474422 ] } },
{ "type": "Feature", "properties": { "address": "4107 Cass Ave, Detroit, MI 48201, United States", "name": "Slows To Go", "rating": 4.1, "n_ratings": 929, "city": "Detroit", "black_owned": false }, "geometry": { "type": "Point", "coordinates": [ -83.063171, 42.3495807 ] } },
{ "type": "Feature", "properties": { "address": "474 Peterboro St, Detroit, MI 48201, United States", "name": "Halal Street", "rating": 4.5, "n_ratings": 47, "city": "Detroit", "black_owned": false }, "geometry": { "type": "Point", "coordinates": [ -83.0615488, 42.344065 ] } },
{ "type": "Feature", "properties": { "address": "474 Peterboro St, Detroit, MI 48201, United States", "name": "Momo Cha", "rating": 4.6, "n_ratings": 94, "city": "Detroit", "black_owned": false }, "geometry": { "type": "Point", "coordinates": [ -83.0615488, 42.344065 ] } },
{ "type": "Feature", "properties": { "address": "3157 Woodward Ave, Detroit, MI 48201, United States", "name": "Top China One", "rating": 3.6, "n_ratings": 292, "city": "Detroit", "black_owned": false }, "geometry": { "type": "Point", "coordinates": [ -83.0565816, 42.3450591 ] } },
{ "type": "Feature", "properties": { "address": "2000 Brush St, Detroit, MI 48226, United States", "name": "Blitz", "rating": 3.3, "n_ratings": 3, "city": "Detroit", "black_owned": false }, "geometry": { "type": "Point", "coordinates": [ -83.0447544, 42.3395186 ] } },
{ "type": "Feature", "properties": { "address": "2469 Russell St, Detroit, MI 48207, United States", "name": "Zeff's Coney Island in Eastern Market", "rating": 4.4, "n_ratings": 1030, "city": "Detroit", "black_owned": false }, "geometry": { "type": "Point", "coordinates": [ -83.0402085, 42.3455172 ] } },
{ "type": "Feature", "properties": { "address": "2542 Market St, Detroit, MI 48207, United States", "name": "Farmer Frank's", "rating": 4.4, "n_ratings": 787, "city": "Detroit", "black_owned": false }, "geometry": { "type": "Point", "coordinates": [ -83.0394509, 42.3468823 ] } },
{ "type": "Feature", "properties": { "address": "2510 Market St, Detroit, MI 48207, United States", "name": "Jose's Tacos", "rating": 4.5, "n_ratings": 421, "city": "Detroit", "black_owned": false }, "geometry": { "type": "Point", "coordinates": [ -83.0392363, 42.3465594 ] } },
{ "type": "Feature", "properties": { "address": "2460 Market St, Detroit, MI 48207, United States", "name": "Vivio's Detroit Eastern Market", "rating": 4.5, "n_ratings": 1586, "city": "Detroit", "black_owned": false }, "geometry": { "type": "Point", "coordinates": [ -83.038681, 42.346095 ] } },
{ "type": "Feature", "properties": { "address": "1454 Gratiot Ave, Detroit, MI 48207, United States", "name": "Bunny Bunny", "rating": 4.4, "n_ratings": 105, "city": "Detroit", "black_owned": false }, "geometry": { "type": "Point", "coordinates": [ -83.0379449, 42.3441963 ] } },
{ "type": "Feature", "properties": { "address": "2735 Russell St, Detroit, MI 48207, United States", "name": "The Motown Bistro", "rating": 3.6, "n_ratings": 548, "city": "Detroit", "black_owned": false }, "geometry": { "type": "Point", "coordinates": [ -83.0414364, 42.347443299999988 ] } },
{ "type": "Feature", "properties": { "address": "1420 Gratiot Ave, Detroit, MI 48207, United States", "name": "Oishi", "rating": 5.0, "n_ratings": 5, "city": "Detroit", "black_owned": false }, "geometry": { "type": "Point", "coordinates": [ -83.0382698, 42.3437809 ] } },
{ "type": "Feature", "properties": { "address": "1416 E Fisher Service Dr, Detroit, MI 48207, United States", "name": "Tocororo", "rating": 5.0, "n_ratings": 20, "city": "Detroit", "black_owned": false }, "geometry": { "type": "Point", "coordinates": [ -83.0389924, 42.3448027 ] } },