{
"type": "FeatureCollection",
"name": "la",
"features": [
{ "type": "Feature", "properties": { "name": "27th Street Bakery", "website": "https://27thstreetbakery.com/", "description": null }, "geometry": { "type": "Point", "coordinates": [ -118.25507, 34.01746 ] } },
{ "type": "Feature", "properties": { "name": "2nd Healthy Eatery", "website": "https://www.2ndhealthyeatery.com/home", "description": null }, "geometry": { "type": "Point", "coordinates": [ -118.1342814, 33.88690295 ] } },
{ "type": "Feature", "properties": { "name": "3Stakxs Kitchen", "website": "https://www.3stakxkitchen.com/", "description": null }, "geometry": { "type": "Point", "coordinates": [ -118.28539, 33.831868 ] } },
{ "type": "Feature", "properties": { "name": "5 Star Kitchen", "website": "https://www.yelp.com/biz/5-star-kitchen", "description": null }, "geometry": { "type": "Point", "coordinates": [ -118.31775, 34.00382 ] } },
{ "type": "Feature", "properties": { "name": "abeautifullife jamaican cafe", "website": "https://www.abeautifullifecafe.com/", "description": null }, "geometry": { "type": "Point", "coordinates": [ -118.2459968, 34.051078 ] } },
{ "type": "Feature", "properties": { "name": "Ackee Bamboo Jamaican Cuisine", "website": "http://ackeebamboojacuisine.com/", "description": "Ackee Bamboo, 4305 Degnan Blvd. #100, Los Angeles, (323) 295-7275, ackeebamboojacuisine.com" }, "geometry": { "type": "Point", "coordinates": [ -118.33183, 34.00574 ] } },
{ "type": "Feature", "properties": { "name": "Adams Coffee Shop", "website": "https://www.altaadams.com/new-page-3", "description": null }, "geometry": { "type": "Point", "coordinates": [ -118.3600423, 34.0326313 ] } },
{ "type": "Feature", "properties": { "name": "Aduke Nigerian Cuisine", "website": "https://aduke-african-cuisne.business.site/", "description": null }, "geometry": { "type": "Point", "coordinates": [ -118.3758422, 33.960264 ] } },
{ "type": "Feature", "properties": { "name": "Airport Royal Cuisine", "website": "https://www.yelp.com/biz/airport-royal-cuisine", "description": null }, "geometry": { "type": "Point", "coordinates": [ -118.36508, 33.94497 ] } },
{ "type": "Feature", "properties": { "name": "Alex Fish Market", "website": "https://www.yelp.com/biz/alex-fish-market", "description": null }, "geometry": { "type": "Point", "coordinates": [ -118.3020248, 34.0110817 ] } },
{ "type": "Feature", "properties": { "name": "All Flavor No Grease", "website": "https://www.instagram.com/allflavornogrease/", "description": "All Flavor No Grease," }, "geometry": { "type": "Point", "coordinates": [ -118.26194, 33.93804 ] } },
{ "type": "Feature", "properties": { "name": "Alta West Adams", "website": "https://www.altaadams.com/", "description": null }, "geometry": { "type": "Point", "coordinates": [ -118.35994, 34.03278 ] } },
{ "type": "Feature", "properties": { "name": "Annie's Soul Delicious", "website": "https://www.anniessouldelicious.com/", "description": null }, "geometry": { "type": "Point", "coordinates": [ -118.36439, 34.05624 ] } },
{ "type": "Feature", "properties": { "name": "Antidote Eats", "website": null, "description": null }, "geometry": { "type": "Point", "coordinates": [ -118.243891, 34.0653347 ] } },
{ "type": "Feature", "properties": { "name": "Awash Restaurant", "website": "http://awash.cafes-world.com/?fbclid=IwAR0qaupV4ZIPPgn0ClWlYCzX-Bw5HmrN6S6eYzjwpxofVzyEfqkAVYoKaJY", "description": "Awash, 5990 W. Pico Blvd., Los Angeles, (323) 939-3233," }, "geometry": { "type": "Point", "coordinates": [ -118.37067, 34.05198 ] } },
{ "type": "Feature", "properties": { "name": "Ayda Ethiopian Restaurant", "website": "https://www.aydaethiopian.com/", "description": null }, "geometry": { "type": "Point", "coordinates": [ -117.2603084, 34.0631949 ] } },
{ "type": "Feature", "properties": { "name": "Azla", "website": "https://azlavegan.com/", "description": null }, "geometry": { "type": "Point", "coordinates": [ -118.330316, 34.005315 ] } },
{ "type": "Feature", "properties": { "name": "B&R's Old-Fashion Burgers", "website": "http://bandrburgers.com/", "description": "3512 Rosecrans Ave., Hawthorne, (310) 679-4774," }, "geometry": { "type": "Point", "coordinates": [ -118.3334316, 33.9018861 ] } },
{ "type": "Feature", "properties": { "name": "Baby Love Sweetery", "website": "https://www.babylovesweetery.com/", "description": null }, "geometry": { "type": "Point", "coordinates": [ -118.39846, 34.16821 ] } },
{ "type": "Feature", "properties": { "name": "Banadir Somali Restaurant", "website": "http://banadir-somali-restaurant.cafe", "description": null }, "geometry": { "type": "Point", "coordinates": [ -118.3558946, 33.95293109 ] } },
{ "type": "Feature", "properties": { "name": "Barbara Jean La", "website": "http://barbarajeanla.com/", "description": null }, "geometry": { "type": "Point", "coordinates": [ -118.28554, 34.012794 ] } },
{ "type": "Feature", "properties": { "name": "Barsha", "website": "https://www.barshalife.com/", "description": null }, "geometry": { "type": "Point", "coordinates": [ -118.3872035, 33.86584333 ] } },
{ "type": "Feature", "properties": { "name": "Bayou Grille", "website": "https://www.bayougrille.net/", "description": null }, "geometry": { "type": "Point", "coordinates": [ -118.35785, 33.98036 ] } },
{ "type": "Feature", "properties": { "name": "BB's Cafe", "website": null, "description": "BB’s Cafe, 502 N. Citrus Ave., Covina, (626) 888-4960" }, "geometry": { "type": "Point", "coordinates": [ -117.8898849, 34.09037399 ] } },
{ "type": "Feature", "properties": { "name": "BBQ Chef", "website": "https://www.yelp.com/biz/bbq-chef", "description": null }, "geometry": { "type": "Point", "coordinates": [ -118.1805079, 33.7895071 ] } },
{ "type": "Feature", "properties": { "name": "Belizean Fish Market", "website": "https://www.yelp.com/biz/belizean", "description": null }, "geometry": { "type": "Point", "coordinates": [ -118.3086166, 34.03142548 ] } },
{ "type": "Feature", "properties": { "name": "Belly's Sliders & Wings", "website": "https://www.bellysslidersandwings.com/", "description": "Belly’s Sliders & Wings," }, "geometry": { "type": "Point", "coordinates": [ -118.22728, 33.8953 ] } },
{ "type": "Feature", "properties": { "name": "Bent SOUL Food and Bent Events", "website": "https://bentevents.com/", "description": null }, "geometry": { "type": "Point", "coordinates": [ -118.4104684, 34.1030032 ] } },
{ "type": "Feature", "properties": { "name": "Beyond Vegan", "website": "https://beyondveganlifestyle.com/", "description": null }, "geometry": { "type": "Point", "coordinates": [ -118.361706, 34.067564 ] } },
{ "type": "Feature", "properties": { "name": "Big Ants BBQ", "website": "https://www.bigantsbbq.com/", "description": null }, "geometry": { "type": "Point", "coordinates": [ -118.2377386, 34.10393479 ] } },
{ "type": "Feature", "properties": { "name": "Big Daddy's Kickin Chicken", "website": "https://www.bigchicken.com", "description": "Big Chicken, 252 S. Brand Blvd., Glendale, (818) 245-6886," }, "geometry": { "type": "Point", "coordinates": [ -118.3529278, 33.9603265 ] } },
{ "type": "Feature", "properties": { "name": "Big Fish Market", "website": "https://big-fish-market.business.site/", "description": null }, "geometry": { "type": "Point", "coordinates": [ -118.3265149, 33.9622417 ] } },
{ "type": "Feature", "properties": { "name": "Billionaire Burger Boyz", "website": "https://www.billionaireburgerboyz.com/", "description": null }, "geometry": { "type": "Point", "coordinates": [ -118.2074657, 33.8893305 ] } },
{ "type": "Feature", "properties": { "name": "Black Bottom Southern Kitchen", "website": "https://blackbottomkitchen.com/", "description": null }, "geometry": { "type": "Point", "coordinates": [ -118.36991, 34.15782 ] } },
{ "type": "Feature", "properties": { "name": "Black Cat BBQ", "website": "http://blackcatbbq.com/", "description": null }, "geometry": { "type": "Point", "coordinates": [ -118.1707611, 34.0843277 ] } },
{ "type": "Feature", "properties": { "name": "BlaqHaus NoHo", "website": "https://www.restaurantnoho.com", "description": "BlaqHaus NoHo, 11671 Victory Blvd., North Hollywood, (818) 332-0500," }, "geometry": { "type": "Point", "coordinates": [ -118.386856, 34.1868798 ] } },
{ "type": "Feature", "properties": { "name": "Blessed Tropical Jamaican Cuisine", "website": null, "description": null }, "geometry": { "type": "Point", "coordinates": [ -118.34444, 33.95241 ] } },
{ "type": "Feature", "properties": { "name": "Bloom & Plume Coffee", "website": "https://bloomandplumecoffee.com/", "description": "Artist and floral designer Maurice Harris recently opened a cafe next to his studio, selling coffee, merchandise and more. 1638-1640 W. Temple St., Los Angeles, (213) 908-5808, bloomandplume.com" }, "geometry": { "type": "Point", "coordinates": [ -118.26232, 34.06816 ] } },
{ "type": "Feature", "properties": { "name": "Bludso's Bar & Que", "website": "https://www.barandque.com/", "description": null }, "geometry": { "type": "Point", "coordinates": [ -118.3442326, 34.0821746 ] } },
{ "type": "Feature", "properties": { "name": "Bo Daddy’s BBQ", "website": "https://www.bodaddys.com/", "description": null }, "geometry": { "type": "Point", "coordinates": [ -118.2639037, 34.03579025 ] } },
{ "type": "Feature", "properties": { "name": "Bohemian House of Espresso + Chai", "website": "https://www.bohemianchai.com/", "description": null }, "geometry": { "type": "Point", "coordinates": [ -118.2506987, 34.04588261 ] } },
{ "type": "Feature", "properties": { "name": "Boketto Cold Brew", "website": "https://www.bokettocoldbrew.com/", "description": "Boketto delivers cold brew coffee directly to homes, offices and restaurants. It also has artisan teas and a cold-brew nitro bike that can be rented for events." }, "geometry": { "type": "Point", "coordinates": [ -118.254626, 34.044369 ] } },
{ "type": "Feature", "properties": { "name": "Bonnie B's Smokin", "website": "https://www.bonniebssmokin.com/", "description": null }, "geometry": { "type": "Point", "coordinates": [ -118.13186, 34.16801 ] } },
{ "type": "Feature", "properties": { "name": "Brandoni Pepperoni", "website": "https://www.brandoni-pepperoni.com/", "description": "Inventive riffs on Southern breakfast cuisine from formerly underground chefs in a low-key setting." }, "geometry": { "type": "Point", "coordinates": [ -118.344643, 34.089909 ] } },
{ "type": "Feature", "properties": { "name": "Bree's Cakes", "website": "https://www.breescakes.com/", "description": null }, "geometry": { "type": "Point", "coordinates": [ -118.5356486, 34.1932743 ] } },
{ "type": "Feature", "properties": { "name": "Brothers Bar-B-Que", "website": "http://www.brotherbarbequecatering.com", "description": "Brother’s Bar-B-Que, 7725 Crenshaw Blvd., Los Angeles, (323) 751-1050," }, "geometry": { "type": "Point", "coordinates": [ -118.33121, 33.969372 ] } },
{ "type": "Feature", "properties": { "name": "Brothers Keeper BBQ", "website": "https://www.brotherskeeperbbq.com/", "description": null }, "geometry": { "type": "Point", "coordinates": [ -118.13151, 33.7896 ] } },
{ "type": "Feature", "properties": { "name": "Buna Ethiopian Restaurant & Market", "website": "https://bunaethiopianmarket.com/", "description": null }, "geometry": { "type": "Point", "coordinates": [ -118.3641842, 34.0570974 ] } },
{ "type": "Feature", "properties": { "name": "Bundts On Melrose", "website": "http://www.bundtsonmelrose.com/", "description": null }, "geometry": { "type": "Point", "coordinates": [ -118.1894949, 33.833702 ] } },
{ "type": "Feature", "properties": { "name": "Busy Baking", "website": "https://www.busybaking.info/", "description": "Busy Baking, 11861 S. Inglewood Ave., Hawthorne, (323) 919-3937," }, "geometry": { "type": "Point", "coordinates": [ -118.3617817, 33.9258337 ] } },
{ "type": "Feature", "properties": { "name": "Cafe Buna", "website": "https://cafe-buna.business.site/", "description": null }, "geometry": { "type": "Point", "coordinates": [ -118.4596348, 33.98316567 ] } },
{ "type": "Feature", "properties": { "name": "Cafe Creole", "website": "http://www.eatatcafecreole.com/", "description": null }, "geometry": { "type": "Point", "coordinates": [ -118.3366526, 34.0109188 ] } },
{ "type": "Feature", "properties": { "name": "Cafe Ruisseau", "website": "https://caferuisseau.com/", "description": "Café Ruisseau, 12150 Millennium Drive, Los Angeles, (323) 561-0223," }, "geometry": { "type": "Point", "coordinates": [ -118.4082239, 33.97961487 ] } },
{ "type": "Feature", "properties": { "name": "Cake Buzz", "website": "https://cakebuzzla.com/", "description": null }, "geometry": { "type": "Point", "coordinates": [ -118.36203, 33.87317 ] } },
{ "type": "Feature", "properties": { "name": "Camille's", "website": "https://www.facebook.com/camillesbakes4u/", "description": null }, "geometry": { "type": "Point", "coordinates": [ -118.33169, 34.1595 ] } },
{ "type": "Feature", "properties": { "name": "Caribbean Gourmet", "website": "https://www.instagram.com/caribbeangourmet/", "description": null }, "geometry": { "type": "Point", "coordinates": [ -118.0948639, 34.14679337 ] } },
{ "type": "Feature", "properties": { "name": "Castle's Catering", "website": "https://www.castlescatering.com", "description": null }, "geometry": { "type": "Point", "coordinates": [ -118.3342202, 34.0056987 ] } },
{ "type": "Feature", "properties": { "name": "Chef Kikis Kitchen", "website": "https://www.yelp.com/biz/chef-kikis-kitchen", "description": null }, "geometry": { "type": "Point", "coordinates": [ -118.2835693, 34.02737808 ] } },
{ "type": "Feature", "properties": { "name": "Chef Marilyn's", "website": "https://www.chefmarilyns2638.com/", "description": "Chef Marilyn’s, 2638 Crenshaw Blvd., Los Angeles, (323) 737-8101," }, "geometry": { "type": "Point", "coordinates": [ -118.3349851, 34.0312698 ] } },
{ "type": "Feature", "properties": { "name": "Chicken N Chips", "website": "https://chickennchips.com/", "description": null }, "geometry": { "type": "Point", "coordinates": [ -118.2507259, 34.1106822 ] } },
{ "type": "Feature", "properties": { "name": "Chipper & Cheeky", "website": "https://www.chipperandcheeky.com/", "description": null }, "geometry": { "type": "Point", "coordinates": [ -118.3689, 34.21728 ] } },
{ "type": "Feature", "properties": { "name": "Chulita", "website": "https://www.chulita.com/", "description": null }, "geometry": { "type": "Point", "coordinates": [ -118.47311, 33.99886 ] } },
{ "type": "Feature", "properties": { "name": "Cliff's Texas Style Burritos", "website": "http://www.cliffsburritos.com/", "description": null }, "geometry": { "type": "Point", "coordinates": [ -118.2285156, 33.88829422 ] } },
{ "type": "Feature", "properties": { "name": "Cobblermania", "website": "https://www.instagram.com/cobblermania/?hl=en", "description": null }, "geometry": { "type": "Point", "coordinates": [ -118.308866, 33.963428 ] } },
{ "type": "Feature", "properties": { "name": "Cobblers Cakes & Kream", "website": "https://cobblerscakesandkream.com/", "description": null }, "geometry": { "type": "Point", "coordinates": [ -118.31948, 33.96025 ] } },
{ "type": "Feature", "properties": { "name": "Coffee and Plants", "website": "https://www.yelp.com/biz/coffee-and-plants-pasadena", "description": "Pasadena" }, "geometry": { "type": "Point", "coordinates": [ -118.1517787, 34.146609 ] } },
{ "type": "Feature", "properties": { "name": "Coffee by Kofi", "website": "https://www.coffeebykofi.com/", "description": null }, "geometry": { "type": "Point", "coordinates": [ -118.266291, 34.031043 ] } },
{ "type": "Feature", "properties": { "name": "Coffee Del Mundo", "website": "https://coffeedelmundo.com/", "description": null }, "geometry": { "type": "Point", "coordinates": [ -118.29111, 33.97212 ] } },
{ "type": "Feature", "properties": { "name": "Colony Cooks", "website": "https://www.tandtlifestylelosangeles.com/", "description": "Los Angeles, (310) 699-8642," }, "geometry": { "type": "Point", "coordinates": [ -118.4514983, 34.04586167 ] } },
{ "type": "Feature", "properties": { "name": "Comfort LA", "website": "https://www.eatcomfortla.com/", "description": null }, "geometry": { "type": "Point", "coordinates": [ -118.2428721, 34.0377826 ] } },
{ "type": "Feature", "properties": { "name": "Compton Vegan", "website": "https://comptonvegan.com/", "description": null }, "geometry": { "type": "Point", "coordinates": [ -118.4514983, 34.04586167 ] } },
{ "type": "Feature", "properties": { "name": "Country Style Jamaican Restaurant", "website": "https://www.yelp.com/biz/country-style-jamaican", "description": null }, "geometry": { "type": "Point", "coordinates": [ -118.35691, 33.97108 ] } },
{ "type": "Feature", "properties": { "name": "Cravin' Crab Cakes", "website": "https://cravincrabcakes.com/", "description": null }, "geometry": { "type": "Point", "coordinates": [ -118.1442719, 34.14744949 ] } },
{ "type": "Feature", "properties": { "name": "Crustees Eatery", "website": "https://www.crusteeseatery.com/", "description": null }, "geometry": { "type": "Point", "coordinates": [ -118.3533352, 33.9886408 ] } },
{ "type": "Feature", "properties": { "name": "CW & Chris Fish and Chicken", "website": "https://cwandchris.wixsite.com/cwandchris", "description": null }, "geometry": { "type": "Point", "coordinates": [ -118.3088351, 33.9801451 ] } },
{ "type": "Feature", "properties": { "name": "D's Original Take Out Grill", "website": "https://www.dsogtakeoutgrill.com/", "description": null }, "geometry": { "type": "Point", "coordinates": [ -118.30933, 33.96748 ] } },
{ "type": "Feature", "properties": { "name": "Darrow's New Orleans Grill", "website": "https://www.darrowsneworleansgrill.com/", "description": null }, "geometry": { "type": "Point", "coordinates": [ -118.26305, 33.83073 ] } },
{ "type": "Feature", "properties": { "name": "Day Day's BBQ & Waffle House", "website": "http://days-bbq-and-waffle.top-cafes.com/", "description": null }, "geometry": { "type": "Point", "coordinates": [ -117.730896, 34.062632 ] } },
{ "type": "Feature", "properties": { "name": "Delvigne Croissant", "website": "https://www.delvignecroissant.com/", "description": null }, "geometry": { "type": "Point", "coordinates": [ -118.3964757, 34.0244076 ] } },
{ "type": "Feature", "properties": { "name": "Derricks on Atlantic", "website": "https://derricksonatlantic.com/", "description": null }, "geometry": { "type": "Point", "coordinates": [ -118.184598, 33.820213 ] } },
{ "type": "Feature", "properties": { "name": "Devi's Donuts and Sweets", "website": "https://devisdonutsandsweets.com/#backtotop", "description": null }, "geometry": { "type": "Point", "coordinates": [ -118.16733, 33.766006 ] } },
{ "type": "Feature", "properties": { "name": "Dirty South Soulfood", "website": "https://www.dirtysoulfood.shop/", "description": null }, "geometry": { "type": "Point", "coordinates": [ -118.22554, 33.9649 ] } },
{ "type": "Feature", "properties": { "name": "Divine Dips Vegan Ice Creme", "website": "http://divinedipsicecreme.com/", "description": null }, "geometry": { "type": "Point", "coordinates": [ -118.2491933, 34.0445458 ] } },
{ "type": "Feature", "properties": { "name": "Doll Babee Cheesecakes", "website": "http://dollbabeecheesecakes.com/", "description": null }, "geometry": { "type": "Point", "coordinates": [ -118.139542, 33.850642 ] } },
{ "type": "Feature", "properties": { "name": "Dulan's On Crenshaw", "website": "https://dulansoncrenshaw.com/", "description": null }, "geometry": { "type": "Point", "coordinates": [ -118.3311944, 33.9984983 ] } },
{ "type": "Feature", "properties": { "name": "Dulan's Soul Food Kitchen", "website": "https://www.dulans-sfk.com/", "description": null }, "geometry": { "type": "Point", "coordinates": [ -118.3530243, 33.9615532 ] } },
{ "type": "Feature", "properties": { "name": "E & J Seafood", "website": "https://www.yelp.com/biz/e-and-j-seafood", "description": null }, "geometry": { "type": "Point", "coordinates": [ -118.34979, 33.9616551 ] } },
{ "type": "Feature", "properties": { "name": "Earle's On Crenshaw", "website": "https://earlesrestaurant.com/", "description": null }, "geometry": { "type": "Point", "coordinates": [ -118.3347559, 34.01562331 ] } },
{ "type": "Feature", "properties": { "name": "Yangmani", "website": "http://everlastingbbq.com/Home_Page.html", "description": null }, "geometry": { "type": "Point", "coordinates": [ -118.2869, 34.05263 ] } },
{ "type": "Feature", "properties": { "name": "Family Fish Market", "website": "http://www.familyfishmarket.com/", "description": null }, "geometry": { "type": "Point", "coordinates": [ -118.3618315, 33.9769733 ] } },
{ "type": "Feature", "properties": { "name": "Fisherman's Outlet", "website": "https://fishboneseafood.com", "description": null }, "geometry": { "type": "Point", "coordinates": [ -118.24018, 34.04083 ] } },
{ "type": "Feature", "properties": { "name": "Fishbone Express - Gardena", "website": "https://fishboneseafood.com/", "description": null }, "geometry": { "type": "Point", "coordinates": [ -118.2925167, 33.90127 ] } },
{ "type": "Feature", "properties": { "name": "Flavors From Afar", "website": "https://www.flavorsfromafar.co/", "description": null }, "geometry": { "type": "Point", "coordinates": [ -118.364192, 34.056837 ] } },
{ "type": "Feature", "properties": { "name": "Flowerboy Project", "website": "https://www.flowerboyproject.com/", "description": "A cafe, flower shop and boutique by designer Sean Knibb. Open for takeout. 824 Lincoln Blvd., Venice," }, "geometry": { "type": "Point", "coordinates": [ -118.46291, 33.99922 ] } },
{ "type": "Feature", "properties": { "name": "FourFortyFour Catering & Curation", "website": "https://www.fourfortyfourcatering.com/", "description": null }, "geometry": { "type": "Point", "coordinates": [ -118.38979, 34.13813 ] } },
{ "type": "Feature", "properties": { "name": "Freaky Fruit Pizza", "website": "https://freakyfruitpizza.com/", "description": null }, "geometry": { "type": "Point", "coordinates": [ -118.30933, 33.96348 ] } },
{ "type": "Feature", "properties": { "name": "Fresh and Meaty Burgers", "website": "https://www.bestturkeyburgerlosangeles.com/", "description": "Ste. 107, Carson, (424) 536-3046," }, "geometry": { "type": "Point", "coordinates": [ -118.326177, 33.974257 ] } },
{ "type": "Feature", "properties": { "name": "Fresh Ethiopian Restaurant", "website": null, "description": "Fresh Ethiopian Restaurant, 1580 Centinela Ave., Inglewood, (310) 674-1545" }, "geometry": { "type": "Point", "coordinates": [ -118.3665458, 33.9771147 ] } },
{ "type": "Feature", "properties": { "name": "Fun-Diggity Funnel Cakes", "website": "https://fundiggity.business.site/", "description": null }, "geometry": { "type": "Point", "coordinates": [ -118.2695584, 33.92368123 ] } },
{ "type": "Feature", "properties": { "name": "Funculo", "website": "https://downtownla.com/go/funculo", "description": null }, "geometry": { "type": "Point", "coordinates": [ -118.252639, 34.043793 ] } },
{ "type": "Feature", "properties": { "name": "Fyrebird", "website": null, "description": "Fyre Bird Chicken, 15717 Crenshaw Blvd., Gardena, (424) 269-1943" }, "geometry": { "type": "Point", "coordinates": [ -118.3271, 33.88773 ] } },
{ "type": "Feature", "properties": { "name": "Georgia's Restaurant", "website": "https://www.georgias-restaurant.com/", "description": null }, "geometry": { "type": "Point", "coordinates": [ -118.1447325, 33.83067069 ] } },
{ "type": "Feature", "properties": { "name": "Gram's Mission BBQ", "website": "http://gramsmissionbbq.com", "description": null }, "geometry": { "type": "Point", "coordinates": [ -117.37278, 33.98474 ] } },
{ "type": "Feature", "properties": { "name": "Granny's Kitchen", "website": "https://www.yelp.com/biz/grannys-kitchen", "description": null }, "geometry": { "type": "Point", "coordinates": [ -118.2563043, 33.99309755 ] } },
{ "type": "Feature", "properties": { "name": "Grilled Fraiche - Hyde Park", "website": "https://www.instagram.com/grilledfraiche/", "description": "Grilled Fraiche, 5800 West Blvd., Los Angeles, (323) 389-8888," }, "geometry": { "type": "Point", "coordinates": [ -118.33492, 33.9887 ] } },
{ "type": "Feature", "properties": { "name": "Hall's Krispy Krunchy Chicken", "website": "https://www.krispykrunchy.com/locations/", "description": null }, "geometry": { "type": "Point", "coordinates": [ -118.3049562, 33.98848019 ] } },
{ "type": "Feature", "properties": { "name": "Hambone's Bar And Grill", "website": "http://hambonesbarandgrill.com/", "description": "Hambone’s Smokehouse, 9825 Belmont St., Bellflower, (562) 920-5200," }, "geometry": { "type": "Point", "coordinates": [ -118.1241989, 33.88380432 ] } },
{ "type": "Feature", "properties": { "name": "Handy's Smoke House Meats & Delicacies", "website": "http://www.handyssmokehousemeats.com/", "description": null }, "geometry": { "type": "Point", "coordinates": [ -118.1894949, 33.833766 ] } },
{ "type": "Feature", "properties": { "name": "Happy Ice", "website": "https://happyicela.com/", "description": null }, "geometry": { "type": "Point", "coordinates": [ -118.349637, 34.083387 ] } },
{ "type": "Feature", "properties": { "name": "Harold & Belle's", "website": "https://haroldandbelles.com/", "description": null }, "geometry": { "type": "Point", "coordinates": [ -118.327966, 34.0254551 ] } },
{ "type": "Feature", "properties": { "name": "Harriet's Cheesecakes Unlimited", "website": null, "description": "Harriet’s Cheesecakes Unlimited, 1515 Centinela Ave., Inglewood, (310) 419-2259" }, "geometry": { "type": "Point", "coordinates": [ -118.36552, 33.97664 ] } },
{ "type": "Feature", "properties": { "name": "Harun Coffee", "website": "https://harunintl.com/", "description": "is a coffee shop, gallery and select shop in Leimert Park. The gallery hosts art shows, and the shop features goods from local and artist-owned brands, which are also found in its online shop. Open for takeout and delivery. 4336 Degnan Blvd., Leimert Park," }, "geometry": { "type": "Point", "coordinates": [ -118.3314079, 34.00485993 ] } },
{ "type": "Feature", "properties": { "name": "Hawkins House of Burgers", "website": "http://www.hawkinsburgers.com/", "description": "11603 Slater St., Los Angeles, (323) 563-1129," }, "geometry": { "type": "Point", "coordinates": [ -118.2522808, 33.9292549 ] } },
{ "type": "Feature", "properties": { "name": "Hilltop Coffee and Kitchen", "website": "https://www.findyourhilltop.com/", "description": "Open for take-out and delivery. Two locations: 4427 W. Slauson Ave., View Park-Windsor Hills, and 170 N. La Brea Ave., Inglewood," }, "geometry": { "type": "Point", "coordinates": [ -118.35298, 33.98904 ] } },
{ "type": "Feature", "properties": { "name": "Hilltop's Jamaican Market & Restaurant A1", "website": "http://www.hilltopsjamaican.com/", "description": null }, "geometry": { "type": "Point", "coordinates": [ -117.729832, 34.063219 ] } },
{ "type": "Feature", "properties": { "name": "Honey's Kettle Fried Chicken", "website": "http://honeyskettle.com/", "description": "Honey’s Kettle, 9537 Culver Blvd., Culver City, (310) 202-5453," }, "geometry": { "type": "Point", "coordinates": [ -118.395477, 34.023227 ] } },
{ "type": "Feature", "properties": { "name": "Hot and Cool Cafe", "website": "https://hotandcoolcafe.com/", "description": "Founded by chief brewer Anthony Jolly, it has coffee, juice, smoothies, and food with vegan options. Open for personal local delivery within 3 miles and takeout. They are also on Grubhub and Seamless. 4331 Degnan Blvd., Leimert Park," }, "geometry": { "type": "Point", "coordinates": [ -118.3316949, 34.00509722 ] } },
{ "type": "Feature", "properties": { "name": "Hotville Chicken", "website": "https://www.hotvillechicken.com/", "description": "Hotville, 4070 Marlton Ave., Los Angeles, (323) 792-4835," }, "geometry": { "type": "Point", "coordinates": [ -118.338889, 34.010694 ] } },
{ "type": "Feature", "properties": { "name": "Industry Cafe & Jazz", "website": "https://industrycafela.com/", "description": null }, "geometry": { "type": "Point", "coordinates": [ -118.3774227, 34.031731 ] } },
{ "type": "Feature", "properties": { "name": "Island Flavors Caribbean Cuisine", "website": "https://www.instagram.com/islandflavors_cc/", "description": "Island Flavors Caribbean Cuisine," }, "geometry": { "type": "Point", "coordinates": [ -118.4421692, 34.18194962 ] } },
{ "type": "Feature", "properties": { "name": "Island Reggae Kitchen", "website": null, "description": "Island Reggae Kitchen, 14426 Crenshaw Blvd., Gardena, (310) 515-6869" }, "geometry": { "type": "Point", "coordinates": [ -118.326103, 33.900135 ] } },
{ "type": "Feature", "properties": { "name": "Island To Table Patty Hut", "website": "https://ittpattyhut.com/", "description": "Island to Table Patty Hut," }, "geometry": { "type": "Point", "coordinates": [ -118.2572291, 34.0456943 ] } },
{ "type": "Feature", "properties": { "name": "J & J's BBQ & Fish", "website": "https://jjbbqfish.com/", "description": null }, "geometry": { "type": "Point", "coordinates": [ -117.7197705, 34.0662478 ] } },
{ "type": "Feature", "properties": { "name": "J Looney's", "website": "https://www.yelp.com/biz/j-looneys-long-beach-2", "description": null }, "geometry": { "type": "Point", "coordinates": [ -118.1766781, 33.8502401 ] } },
{ "type": "Feature", "properties": { "name": "Jackfruit Cafe", "website": "https://jackfruitcafe.com/", "description": null }, "geometry": { "type": "Point", "coordinates": [ -118.4514792, 34.04586538 ] } },
{ "type": "Feature", "properties": { "name": "Jaliz Cuisine of East Africa", "website": "http://jalizcuisine.com/", "description": null }, "geometry": { "type": "Point", "coordinates": [ -118.4546841, 34.1910499 ] } },
{ "type": "Feature", "properties": { "name": "JamaFo Jamaican Food Xpress", "website": "https://www.jamafoxpress.com/", "description": "JamaFo Jamaican Food Xpress, Canoga Park, (747) 999-5980," }, "geometry": { "type": "Point", "coordinates": [ -118.6108433, 34.2013301 ] } },
{ "type": "Feature", "properties": { "name": "JAMZ Creamery", "website": "https://jamzcreamery.com/", "description": null }, "geometry": { "type": "Point", "coordinates": [ -118.3528045, 33.9619049 ] } },
{ "type": "Feature", "properties": { "name": "Janga by Derrick's Jamaican Cuisine", "website": "http://jangabyderricks.com/", "description": null }, "geometry": { "type": "Point", "coordinates": [ -118.39419, 34.02475 ] } },
{ "type": "Feature", "properties": { "name": "Jay Bee's Bar-B-Q", "website": null, "description": "Jay Bee’s, 15911 S. Avalon Blvd., Gardena, (310) 532-1064" }, "geometry": { "type": "Point", "coordinates": [ -118.2655083, 33.88702891 ] } },
{ "type": "Feature", "properties": { "name": "Jordan's Hot Dogs", "website": "https://jordanshotdogsla.com/", "description": null }, "geometry": { "type": "Point", "coordinates": [ -118.3305262, 33.9860575 ] } },
{ "type": "Feature", "properties": { "name": "JR's Barbeque", "website": "http://jrs-bbq.com/", "description": null }, "geometry": { "type": "Point", "coordinates": [ -118.3724213, 34.0306015 ] } },
{ "type": "Feature", "properties": { "name": "Juice-C-Juice", "website": "https://www.gotjuices.com/", "description": null }, "geometry": { "type": "Point", "coordinates": [ -118.258178, 33.839751 ] } },
{ "type": "Feature", "properties": { "name": "Just Turkey", "website": "http://justturkeyla.com/", "description": null }, "geometry": { "type": "Point", "coordinates": [ -118.37158, 34.02692 ] } },
{ "type": "Feature", "properties": { "name": "Karuba's Yardy Kitchen", "website": null, "description": "Karuba’s Yardy Kitchen, 1300 Centinela Ave., Inglewood, (424) 312-1055" }, "geometry": { "type": "Point", "coordinates": [ -118.36175, 33.97689 ] } },
{ "type": "Feature", "properties": { "name": "Keith's Kettle Corn", "website": "https://www.keithskettlecorn.com/", "description": null }, "geometry": { "type": "Point", "coordinates": [ -117.909293, 34.13312383 ] } },
{ "type": "Feature", "properties": { "name": "Ken's Ice Cream Parlor", "website": "http://kensicecream.net/", "description": null }, "geometry": { "type": "Point", "coordinates": [ -118.267129, 33.862053 ] } },
{ "type": "Feature", "properties": { "name": "Kenny's Q BAR-B-QUE and More", "website": "https://www.kennysqbbq.com/", "description": null }, "geometry": { "type": "Point", "coordinates": [ -118.3437751, 33.9355801 ] } },
{ "type": "Feature", "properties": { "name": "King Kone Ice Cream", "website": "http://www.kingkonela.com/", "description": "King Kone, (323) 208-1403," }, "geometry": { "type": "Point", "coordinates": [ -118.3751373, 34.07619476 ] } },
{ "type": "Feature", "properties": { "name": "Kings Deli", "website": "https://www.kingsdeli.co/", "description": "Kings Deli, 109 N. Pass Ave., Burbank, (818) 561-4405," }, "geometry": { "type": "Point", "coordinates": [ -118.3430673, 34.149642 ] } },
{ "type": "Feature", "properties": { "name": "LA Buns", "website": null, "description": "LA Buns, 8237 2nd St., Downey, (562) 923-9038" }, "geometry": { "type": "Point", "coordinates": [ -118.1330898, 33.94144936 ] } },
{ "type": "Feature", "properties": { "name": "L A Grind Coffee & Tea Bar", "website": "https://lagrindcoffeeandteabar.com/", "description": null }, "geometry": { "type": "Point", "coordinates": [ -118.25849, 34.00566 ] } },
{ "type": "Feature", "properties": { "name": "La Louisanne", "website": "http://www.lalouisannela.com/", "description": null }, "geometry": { "type": "Point", "coordinates": [ -118.35385, 33.98825 ] } },
{ "type": "Feature", "properties": { "name": "Ladie Kakes", "website": "https://ladiekakes.square.site/", "description": null }, "geometry": { "type": "Point", "coordinates": [ -118.1941785, 33.7415316 ] } },
{ "type": "Feature", "properties": { "name": "Lalibela Ethiopian Restaurant", "website": "https://www.lalibelala.com/", "description": "Lalibela, 1025 S. Fairfax Ave., Los Angeles, (323) 965-1025," }, "geometry": { "type": "Point", "coordinates": [ -118.36465, 34.0571 ] } },
{ "type": "Feature", "properties": { "name": "LaRayia's Bodega", "website": "https://larayias-bodega.business.site/", "description": null }, "geometry": { "type": "Point", "coordinates": [ -118.28166, 34.06277 ] } },
{ "type": "Feature", "properties": { "name": "Lêberry Bakery & Donut", "website": "https://www.leberrybakery.com", "description": null }, "geometry": { "type": "Point", "coordinates": [ -118.1411811, 34.14600091 ] } },
{ "type": "Feature", "properties": { "name": "Lee Esther's Creole and Cajun Cooking", "website": "https://www.leeesthers.com", "description": null }, "geometry": { "type": "Point", "coordinates": [ -118.114657, 34.58185 ] } },
{ "type": "Feature", "properties": { "name": "Lee's Caribbean Restaurant", "website": null, "description": null }, "geometry": { "type": "Point", "coordinates": [ -118.344685, 33.9497 ] } },
{ "type": "Feature", "properties": { "name": "Lee's Market", "website": "https://www.facebook.com/Leesmarketcatering/", "description": null }, "geometry": { "type": "Point", "coordinates": [ -118.2387314, 33.9349861 ] } },
{ "type": "Feature", "properties": { "name": "Les Sisters Southern Kitchen & BBQ", "website": "http://www.lessisters.com/", "description": "Les Sisters, 21818 Devonshire St., Chatsworth, (818) 998-0755," }, "geometry": { "type": "Point", "coordinates": [ -118.6045, 34.25695 ] } },
{ "type": "Feature", "properties": { "name": "Lettuce Feast", "website": "https://www.lettucefeast.online/", "description": null }, "geometry": { "type": "Point", "coordinates": [ -118.2497, 33.97853 ] } },
{ "type": "Feature", "properties": { "name": "Little Amsterdam Coffee Shop", "website": "https://littleamsterdamcoffee.net/", "description": null }, "geometry": { "type": "Point", "coordinates": [ -118.3493, 34.0475 ] } },
{ "type": "Feature", "properties": { "name": "Little Belize Restaurant", "website": "https://littlebelizerestaurant.com/", "description": null }, "geometry": { "type": "Point", "coordinates": [ -118.3530446, 33.9606049 ] } },
{ "type": "Feature", "properties": { "name": "Little Kingston Jamaican Restaurant", "website": "https://www.instagram.com/jamaicaonthego/", "description": null }, "geometry": { "type": "Point", "coordinates": [ -118.3592158, 33.9880618 ] } },
{ "type": "Feature", "properties": { "name": "The Little Red Hen Coffee Shop", "website": "https://little-red-hen-coffee-shop.hub.biz/", "description": null }, "geometry": { "type": "Point", "coordinates": [ -118.14897, 34.19185 ] } },
{ "type": "Feature", "properties": { "name": "Lotus Vegan", "website": "http://lotusveganla.com/", "description": null }, "geometry": { "type": "Point", "coordinates": [ -118.3694993, 34.1561199 ] } },
{ "type": "Feature", "properties": { "name": "Lou The French On The Block", "website": "https://www.louthefrenchontheblock.com/", "description": null }, "geometry": { "type": "Point", "coordinates": [ -118.3432846, 34.15216064 ] } },
{ "type": "Feature", "properties": { "name": "Louisiana Charlie's", "website": "http://www.louisianacharlies.com/", "description": null }, "geometry": { "type": "Point", "coordinates": [ -118.191808, 33.760095 ] } },
{ "type": "Feature", "properties": { "name": "M & T Donuts", "website": "https://m-and-t-donuts.square.site/", "description": null }, "geometry": { "type": "Point", "coordinates": [ -118.2452288, 33.94385913 ] } },
{ "type": "Feature", "properties": { "name": "M'Dear's Bakery & Bistro", "website": "https://www.mdears.net/", "description": null }, "geometry": { "type": "Point", "coordinates": [ -118.309089, 33.969506 ] } },
{ "type": "Feature", "properties": { "name": "Mack & Jane", "website": "https://www.mackandjane.com/", "description": null }, "geometry": { "type": "Point", "coordinates": [ -118.3724823, 34.16475677 ] } },
{ "type": "Feature", "properties": { "name": "Main Kitchen Cafe", "website": "https://www.mainkitchencafe.com/", "description": null }, "geometry": { "type": "Point", "coordinates": [ -118.50279, 34.264995 ] } },
{ "type": "Feature", "properties": { "name": "Mama's Chicken and Market", "website": "http://www.mamaschicken.name/", "description": null }, "geometry": { "type": "Point", "coordinates": [ -118.32101, 33.98883 ] } },
{ "type": "Feature", "properties": { "name": "Mar's Caribbean Gardens", "website": "http://marscaribbean.com/", "description": "Mar’s Caribbean Gardens, 14008 Crenshaw Blvd., Gardena, (310) 323-5000," }, "geometry": { "type": "Point", "coordinates": [ -118.32616, 33.90444 ] } },
{ "type": "Feature", "properties": { "name": "Mardi Gras Tuesday", "website": "https://www.eatatfattuesday.com/", "description": "Fat Tuesday, 14543 Ventura Blvd., Sherman Oaks, (818) 208-9838," }, "geometry": { "type": "Point", "coordinates": [ -118.45017, 34.15148 ] } },
{ "type": "Feature", "properties": { "name": "Matthews Home Style Cooking", "website": "https://matthewshomestylecooking.business.site/", "description": null }, "geometry": { "type": "Point", "coordinates": [ -118.31859, 33.90154 ] } },
{ "type": "Feature", "properties": { "name": "Meals by Genet", "website": "http://mealsbygenetla.com/", "description": null }, "geometry": { "type": "Point", "coordinates": [ -118.36483, 34.05671 ] } },
{ "type": "Feature", "properties": { "name": "Mel's Fish Shack", "website": "https://melsfishshack.com/", "description": null }, "geometry": { "type": "Point", "coordinates": [ -118.3459583, 34.02536113 ] } },
{ "type": "Feature", "properties": { "name": "Melkam Ethiopian Restaurant", "website": "https://www.yelp.com/biz/melkam-ethiopian", "description": null }, "geometry": { "type": "Point", "coordinates": [ -118.3111654, 34.04715523 ] } },
{ "type": "Feature", "properties": { "name": "Merkato Ethiopian Restaurant & Market", "website": "https://www.yelp.com/biz/merkato-ethiopian", "description": null }, "geometry": { "type": "Point", "coordinates": [ -118.36403, 34.05701 ] } },
{ "type": "Feature", "properties": { "name": "Messob Ethiopian Restaurant", "website": "https://www.messob.com/", "description": null }, "geometry": { "type": "Point", "coordinates": [ -118.36469, 34.05699 ] } },
{ "type": "Feature", "properties": { "name": "milk + brookies", "website": "http://www.milkandbrookies.com/", "description": null }, "geometry": { "type": "Point", "coordinates": [ -118.3964665, 34.0211224 ] } },
{ "type": "Feature", "properties": { "name": "Mingles Tea Bar", "website": "https://minglesteabar.com/", "description": "Mingles Tea Bar, 8443 Crenshaw Blvd., Inglewood, (424) 704-2777," }, "geometry": { "type": "Point", "coordinates": [ -118.32783, 33.96203 ] } },
{ "type": "Feature", "properties": { "name": "Mo Better Burgers South Bay", "website": "https://mo-better-burgers-south-bay.business.site/", "description": "Mo Better Burgers, 12734 Crenshaw Blvd., Hawthorne, (323) 531-1749," }, "geometry": { "type": "Point", "coordinates": [ -118.32616, 33.91674 ] } },
{ "type": "Feature", "properties": { "name": "Mom's Burgers", "website": null, "description": "Mom’s Burgers, 336 W. Alondra Blvd., Compton, (310) 632-6622" }, "geometry": { "type": "Point", "coordinates": [ -118.22761, 33.88825 ] } },
{ "type": "Feature", "properties": { "name": "Moms Haus", "website": null, "description": null }, "geometry": { "type": "Point", "coordinates": [ -118.4395014, 34.1938051 ] } },
{ "type": "Feature", "properties": { "name": "Mr Fries Man", "website": "https://www.mrfriesman.com/", "description": null }, "geometry": { "type": "Point", "coordinates": [ -118.3085831, 33.89696162 ] } },
{ "type": "Feature", "properties": { "name": "Ms. B's M & M's Soul Food", "website": "https://www.msbsmandmsoulfoodrestaurant.com/", "description": null }, "geometry": { "type": "Point", "coordinates": [ -118.356536, 33.9311431 ] } },
{ "type": "Feature", "properties": { "name": "El Chato Taco Truck", "website": "https://www.instagram.com/_munchiemadness/", "description": null }, "geometry": { "type": "Point", "coordinates": [ -118.346074, 34.0571251 ] } },
{ "type": "Feature", "properties": { "name": "Munchies Vegan Diner", "website": "https://www.munchiesvegandiner.com/", "description": null }, "geometry": { "type": "Point", "coordinates": [ -117.866475, 33.7476586 ] } },
{ "type": "Feature", "properties": { "name": "My Fish Stop", "website": "https://www.myfishstop.com/", "description": null }, "geometry": { "type": "Point", "coordinates": [ -118.4567853, 34.1722449 ] } },
{ "type": "Feature", "properties": { "name": "My Place Cafe", "website": "https://www.yelp.com/biz/my-place-cafe", "description": null }, "geometry": { "type": "Point", "coordinates": [ -118.142285, 34.181231 ] } },
{ "type": "Feature", "properties": { "name": "My Two Cents", "website": "http://mytwocentsla.com/", "description": null }, "geometry": { "type": "Point", "coordinates": [ -118.3596124, 34.0498186 ] } },
{ "type": "Feature", "properties": { "name": "Natraliart Jamaican Restaurant & Market", "website": "https://www.natraliartrestaurant.com/", "description": null }, "geometry": { "type": "Point", "coordinates": [ -118.32226, 34.03955 ] } },
{ "type": "Feature", "properties": { "name": "Nimbus Coffee", "website": null, "description": "A Harry Potter-inspired cafe with themed coffee drinks and decor. Open for takeout. 1115 S Hope St., downtown Los Angeles." }, "geometry": { "type": "Point", "coordinates": [ -118.263719, 34.041887 ] } },
{ "type": "Feature", "properties": { "name": "Nita's Corn & Nacho", "website": null, "description": null }, "geometry": { "type": "Point", "coordinates": [ -118.25009, 33.97908 ] } },
{ "type": "Feature", "properties": { "name": "Nkechi African Cafe", "website": "https://www.yelp.com/biz/nkechi-african-cafe", "description": null }, "geometry": { "type": "Point", "coordinates": [ -118.3236, 33.96025 ] } },
{ "type": "Feature", "properties": { "name": "O'Nells Comfort Kitchen", "website": "https://www.yelp.com/biz/o-nells-comfort", "description": null }, "geometry": { "type": "Point", "coordinates": [ -118.18978, 33.79872 ] } },
{ "type": "Feature", "properties": { "name": "Obet and Del's Coffee", "website": "https://www.yelp.com/biz/obet-and-dels", "description": null }, "geometry": { "type": "Point", "coordinates": [ -118.3045691, 34.10199242 ] } },
{ "type": "Feature", "properties": { "name": "Oh My Burger", "website": "https://www.ohmyburgerla.com/", "description": null }, "geometry": { "type": "Point", "coordinates": [ -118.3168825, 33.91621446 ] } },
{ "type": "Feature", "properties": { "name": "One876 Caribbean Restaurant", "website": "https://one876caribbeanrestaurant.com/", "description": "One876 Caribbean Restaurant, 20869 Lassen St., Chatsworth, (818) 678-9252," }, "geometry": { "type": "Point", "coordinates": [ -118.5881857, 34.25032867 ] } },
{ "type": "Feature", "properties": { "name": "Onil Chibas Events", "website": "https://www.chibasevents.com/wonderful", "description": null }, "geometry": { "type": "Point", "coordinates": [ -118.115085, 34.16926833 ] } },
{ "type": "Feature", "properties": { "name": "Orleans & York Deli", "website": "http://orleansandyorkdeli.com", "description": null }, "geometry": { "type": "Point", "coordinates": [ -118.2478561, 34.0495262 ] } },
{ "type": "Feature", "properties": { "name": "Papa John's Pizza", "website": "https://locations.papajohns.com/united-states", "description": null }, "geometry": { "type": "Point", "coordinates": [ -118.34567, 34.07588 ] } },
{ "type": "Feature", "properties": { "name": "Park Bench Grill", "website": "https://www.facebook.com/ParkBenchGrill/", "description": null }, "geometry": { "type": "Point", "coordinates": [ -118.1313946, 34.1878122 ] } },
{ "type": "Feature", "properties": { "name": "Parrains Soulfood", "website": "https://www.facebook.com/parrainssoulfood/", "description": "Parrain’s Soul Food, 7908 Alondra Blvd., Paramount, (562) 634-6050," }, "geometry": { "type": "Point", "coordinates": [ -118.1612179, 33.8891139 ] } },
{ "type": "Feature", "properties": { "name": "Pasadena Fish Market", "website": "https://www.yelp.com/biz/pasadena-fish-market", "description": null }, "geometry": { "type": "Point", "coordinates": [ -118.1469, 34.15804 ] } },
{ "type": "Feature", "properties": { "name": "Patria Coffee Roasters", "website": "https://www.patriacoffee.com/", "description": null }, "geometry": { "type": "Point", "coordinates": [ -118.219653, 33.896412 ] } },
{ "type": "Feature", "properties": { "name": "Pepper's Jamaican-Belizean Cuisine", "website": null, "description": null }, "geometry": { "type": "Point", "coordinates": [ -118.3169874, 33.9890834 ] } },
{ "type": "Feature", "properties": { "name": "Perry's Joint", "website": "https://perrysjoint.com/", "description": "Perry’s Joint, 2051 Lincoln Ave., Pasadena (626) 798-4700," }, "geometry": { "type": "Point", "coordinates": [ -118.1598049, 34.1810763 ] } },
{ "type": "Feature", "properties": { "name": "Phat & Juicy Burgers", "website": "https://www.yelp.com/biz/phat-and-juicy-burgers", "description": null }, "geometry": { "type": "Point", "coordinates": [ -118.3665466, 33.9771156 ] } },
{ "type": "Feature", "properties": { "name": "Phat Birds", "website": "https://phatbirds.com/", "description": null }, "geometry": { "type": "Point", "coordinates": [ -118.277853, 34.09077 ] } },
{ "type": "Feature", "properties": { "name": "Phat Daddy's", "website": "https://www.facebook.com/phatdaddyss/", "description": null }, "geometry": { "type": "Point", "coordinates": [ -118.31887, 33.999867 ] } },
{ "type": "Feature", "properties": { "name": "Phillips Bar B Que", "website": null, "description": "Phillips Bar-B-Que, 2619 Crenshaw Blvd., Los Angeles, (323) 731-4772" }, "geometry": { "type": "Point", "coordinates": [ -118.3655114, 33.9767641 ] } },
{ "type": "Feature", "properties": { "name": "Pizza Of Venice", "website": "https://www.pizzaofvenice.com/", "description": null }, "geometry": { "type": "Point", "coordinates": [ -118.1500072, 34.1892934 ] } },
{ "type": "Feature", "properties": { "name": "Pop Belli Deli", "website": "https://www.yelp.com/biz/pop-belli-deli", "description": null }, "geometry": { "type": "Point", "coordinates": [ -118.31811, 33.906123 ] } },
{ "type": "Feature", "properties": { "name": "Popcornopolis", "website": "http://www.popcornheavenca.com/", "description": null }, "geometry": { "type": "Point", "coordinates": [ -118.355316, 34.13623012 ] } },
{ "type": "Feature", "properties": { "name": "Poppy + Rose", "website": "https://www.poppyandrosela.com/", "description": null }, "geometry": { "type": "Point", "coordinates": [ -118.2500946, 34.04067 ] } },
{ "type": "Feature", "properties": { "name": "Post & Beam", "website": "https://postandbeamla.com/", "description": null }, "geometry": { "type": "Point", "coordinates": [ -118.3390427, 34.009861 ] } },
{ "type": "Feature", "properties": { "name": "Pucker Up Lemonade Company", "website": "https://puckeruplemonadecompany.business.site/", "description": null }, "geometry": { "type": "Point", "coordinates": [ -118.215319, 33.896188 ] } },
{ "type": "Feature", "properties": { "name": "Queen of Sheba Ethiopian restaurant", "website": "https://www.queenshebainglewood.com/", "description": null }, "geometry": { "type": "Point", "coordinates": [ -118.35687, 33.97133 ] } },
{ "type": "Feature", "properties": { "name": "R & R Soul Food Restaurant", "website": "https://www.randrsoulfood.com/", "description": null }, "geometry": { "type": "Point", "coordinates": [ -118.2665491, 33.86225756 ] } },
{ "type": "Feature", "properties": { "name": "R Kitchen Soul Food", "website": null, "description": null }, "geometry": { "type": "Point", "coordinates": [ -118.1602171, 33.85276528 ] } },
{ "type": "Feature", "properties": { "name": "Rahel Ethiopian Vegan Cuisine", "website": "http://rahelvegancuisine.com/", "description": "Rahel, 1047 S. Fairfax Ave., Los Angeles, (323)-937-8401," }, "geometry": { "type": "Point", "coordinates": [ -118.36475, 34.05687 ] } },
{ "type": "Feature", "properties": { "name": "Ranch Side Cafe", "website": "http://www.ranchsidecafe.com/", "description": "Ranch Side Cafe, 11355 Foothill Blvd., Sylmar, (818) 834-0031," }, "geometry": { "type": "Point", "coordinates": [ -118.3787874, 34.2763413 ] } },
{ "type": "Feature", "properties": { "name": "Red's Flavor Table Breakfast Take Out", "website": "https://www.redsflavortable.com/", "description": null }, "geometry": { "type": "Point", "coordinates": [ -118.35077, 33.96652 ] } },
{ "type": "Feature", "properties": { "name": "Revolutionario: North African Tacos", "website": "http://revolutionario.com/menu/", "description": null }, "geometry": { "type": "Point", "coordinates": [ -118.29857, 34.02523 ] } },
{ "type": "Feature", "properties": { "name": "RibTown B.B.Q", "website": "http://ribtownbbq.com/", "description": null }, "geometry": { "type": "Point", "coordinates": [ -118.3185535, 34.02559314 ] } },
{ "type": "Feature", "properties": { "name": "Robert Earl's BBQ", "website": "http://robertearlsbbq.com/", "description": null }, "geometry": { "type": "Point", "coordinates": [ -118.1836787, 33.87478217 ] } },
{ "type": "Feature", "properties": { "name": "Rosalind's Ethiopian Restaurant", "website": "https://rosalindsla.com", "description": null }, "geometry": { "type": "Point", "coordinates": [ -118.3643637, 34.05696608 ] } },
{ "type": "Feature", "properties": { "name": "Roscoe's House of Chicken & Waffles", "website": "https://www.roscoeschickenandwaffles.com/", "description": null }, "geometry": { "type": "Point", "coordinates": [ -118.3462296, 34.0474472 ] } },
{ "type": "Feature", "properties": { "name": "Royal Gourmet Cookies", "website": "https://royalgourmetcookies.com/", "description": null }, "geometry": { "type": "Point", "coordinates": [ -118.1840134, 33.83259583 ] } },
{ "type": "Feature", "properties": { "name": "Rusty Pot Cafe", "website": "https://rustypotcafe.com/", "description": null }, "geometry": { "type": "Point", "coordinates": [ -118.3517951, 33.95991 ] } },
{ "type": "Feature", "properties": { "name": "Sal's Gumbo Shack", "website": "http://www.salsgumboshack.com/", "description": null }, "geometry": { "type": "Point", "coordinates": [ -118.20011, 33.86661 ] } },
{ "type": "Feature", "properties": { "name": "Sattdown Jamaican Grill", "website": "http://sattdownjamaicangrill.com/", "description": null }, "geometry": { "type": "Point", "coordinates": [ -118.3767751, 34.1401319 ] } },
{ "type": "Feature", "properties": { "name": "Savage Tacos Truck", "website": null, "description": null }, "geometry": { "type": "Point", "coordinates": [ -118.2425, 34.06048 ] } },
{ "type": "Feature", "properties": { "name": "Say Cheese", "website": "http://www.saycheeselosangeles.com/", "description": "Say Cheese, 2800 Hyperion Ave., Los Angeles, (323) 665-0545," }, "geometry": { "type": "Point", "coordinates": [ -118.2714386, 34.10813522 ] } },
{ "type": "Feature", "properties": { "name": "SCV Fish Market", "website": "https://scvfishmarket.net/", "description": null }, "geometry": { "type": "Point", "coordinates": [ -118.5416247, 34.4211638 ] } },
{ "type": "Feature", "properties": { "name": "Shaquille’s", "website": "https://www.shaquilles.com/", "description": null }, "geometry": { "type": "Point", "coordinates": [ -118.2641735, 34.04489 ] } },
{ "type": "Feature", "properties": { "name": "Silverback Coffee of Rwanda", "website": "https://silverbackcoffee.com/", "description": "Founded by Jack Karuletwa, Silverback sources its coffee from farms in Rwanda, where he grew up. A portion of proceeds are donated to Rwandan organizations. The Echo Park location is open for takeout and limited dine-in. 1712 W. Sunset Blvd., Echo Park," }, "geometry": { "type": "Point", "coordinates": [ -118.25897, 34.07724 ] } },
{ "type": "Feature", "properties": { "name": "Simply D'Licious", "website": "https://simplydliciousla.com/", "description": null }, "geometry": { "type": "Point", "coordinates": [ -118.3407847, 34.04013099 ] } },
{ "type": "Feature", "properties": { "name": "Simply Wholesome", "website": "https://www.simplywholesome.com/", "description": null }, "geometry": { "type": "Point", "coordinates": [ -118.354468, 33.9886372 ] } },
{ "type": "Feature", "properties": { "name": "Sip & Sonder", "website": "https://www.sipandsonder.com/", "description": "Two lawyers, Amanda-Jane Thomas and Shanita Nicholas, became friends and launched Sip and Sonder, an entrepreneurial and creative hub that also houses a coffee house. Open for takeout. 108 S Market St, Inglewood," }, "geometry": { "type": "Point", "coordinates": [ -118.3518551, 33.96274 ] } },
{ "type": "Feature", "properties": { "name": "Sky's Gourmet Tacos", "website": "https://skystacos.com/mdr", "description": null }, "geometry": { "type": "Point", "coordinates": [ -118.353867, 34.048672 ] } },
{ "type": "Feature", "properties": { "name": "Soul Food Renaissance", "website": "https://soulfoodrenaissance.business.site/", "description": null }, "geometry": { "type": "Point", "coordinates": [ -118.16901, 33.87529 ] } },
{ "type": "Feature", "properties": { "name": "South LA Cafe", "website": "https://www.southlacafe.com/", "description": "Founded by Joe and Celia Ward-Wallace, who grew up in the area, serves food and coffee in a community hub. 1700 Browning Blvd., Exposition Park," }, "geometry": { "type": "Point", "coordinates": [ -118.3089374, 34.0118793 ] } },
{ "type": "Feature", "properties": { "name": "Southern Girl Desserts", "website": "https://www.southerngirldesserts.com/", "description": null }, "geometry": { "type": "Point", "coordinates": [ -118.3371359, 34.01027009 ] } },
{ "type": "Feature", "properties": { "name": "Stevie's Creole Cafe", "website": "http://www.steviescreolecafe.com/", "description": null }, "geometry": { "type": "Point", "coordinates": [ -118.358656, 34.049526 ] } },
{ "type": "Feature", "properties": { "name": "Str8 Up Tacos", "website": null, "description": null }, "geometry": { "type": "Point", "coordinates": [ -118.03756, 33.83935 ] } },
{ "type": "Feature", "properties": { "name": "Stuff I Eat", "website": "https://www.stuffieat.com/", "description": null }, "geometry": { "type": "Point", "coordinates": [ -118.3518651, 33.963434 ] } },
{ "type": "Feature", "properties": { "name": "Sugah Rush Bar", "website": null, "description": null }, "geometry": { "type": "Point", "coordinates": [ -118.34251, 33.9093 ] } },
{ "type": "Feature", "properties": { "name": "Sugar & Spice Ice Cream", "website": "https://bres-bistro.square.site/", "description": null }, "geometry": { "type": "Point", "coordinates": [ -118.4682196, 34.20164164 ] } },
{ "type": "Feature", "properties": { "name": "SugarJones", "website": "http://www.sweetsugarjones.com/", "description": null }, "geometry": { "type": "Point", "coordinates": [ -118.3998032, 34.16654205 ] } },
{ "type": "Feature", "properties": { "name": "Sumptuous African Restaurant", "website": "http://sumptuousafricanrestaurant.com/", "description": null }, "geometry": { "type": "Point", "coordinates": [ -118.3521243, 33.9476224 ] } },
{ "type": "Feature", "properties": { "name": "Sweet Blessings by Cyler", "website": "https://www.sweetblessingsla.com/", "description": null }, "geometry": { "type": "Point", "coordinates": [ -118.44091, 34.20078 ] } },
{ "type": "Feature", "properties": { "name": "Sweet Red Peach", "website": "https://www.sweetredpeach.com/", "description": null }, "geometry": { "type": "Point", "coordinates": [ -118.3442109, 33.95026417 ] } },
{ "type": "Feature", "properties": { "name": "Swift Cafe", "website": "https://swift-la.com/", "description": null }, "geometry": { "type": "Point", "coordinates": [ -118.33439, 34.00591 ] } },
{ "type": "Feature", "properties": { "name": "T&T Lifestyle", "website": "https://www.tandtlifestylelosangeles.com/", "description": null }, "geometry": { "type": "Point", "coordinates": [ -118.4515097, 34.0458929 ] } },
{ "type": "Feature", "properties": { "name": "Taco Bar", "website": "https://tacobarla.com/", "description": null }, "geometry": { "type": "Point", "coordinates": [ -118.3650733, 34.051285 ] } },
{ "type": "Feature", "properties": { "name": "Taco Mell Catering", "website": "http://tacomell.net/", "description": "Taco Mell, 4326 Crenshaw Blvd., Los Angeles, (844) 822-6635," }, "geometry": { "type": "Point", "coordinates": [ -118.3330114, 34.0047822 ] } },
{ "type": "Feature", "properties": { "name": "Tacos Negros", "website": "https://www.instagram.com/tacosnegrosla/", "description": null }, "geometry": { "type": "Point", "coordinates": [ -118.359615, 34.049849 ] } },
{ "type": "Feature", "properties": { "name": "Tanjee Bakes", "website": "https://www.tanjeebakes.com/", "description": null }, "geometry": { "type": "Point", "coordinates": [ -118.191597, 33.85414505 ] } },
{ "type": "Feature", "properties": { "name": "The Original Texas Barbecue King", "website": "http://www.texasbbqking.com/", "description": null }, "geometry": { "type": "Point", "coordinates": [ -118.29182, 33.99376 ] } },
{ "type": "Feature", "properties": { "name": "BLVD Kitchen", "website": "http://www.theblvdkitchen.com/", "description": null }, "geometry": { "type": "Point", "coordinates": [ -118.4285, 34.14787 ] } },
{ "type": "Feature", "properties": { "name": "The Boujie Crab", "website": "https://www.theboujiecrab.com/", "description": null }, "geometry": { "type": "Point", "coordinates": [ -118.180847, 33.85999 ] } },
{ "type": "Feature", "properties": { "name": "The Corner 10th’s BBQ", "website": "https://www.thecorner10th.com/", "description": null }, "geometry": { "type": "Point", "coordinates": [ -118.15426, 33.7788 ] } },
{ "type": "Feature", "properties": { "name": "The Court Cafe", "website": "https://www.yelp.com/biz/the-court-cafe-los-angeles", "description": null }, "geometry": { "type": "Point", "coordinates": [ -118.3764085, 33.97678184 ] } },
{ "type": "Feature", "properties": { "name": "The DW Cookie Co", "website": "https://www.yelp.com/biz/the-dw-cookie-co", "description": null }, "geometry": { "type": "Point", "coordinates": [ -118.4668163, 34.4156349 ] } },
{ "type": "Feature", "properties": { "name": "The Gourmet Cobbler Factory", "website": "https://cobblerfactorypasadena.com/", "description": null }, "geometry": { "type": "Point", "coordinates": [ -118.1295649, 34.1463601 ] } },
{ "type": "Feature", "properties": { "name": "The Jerk Spot Jamaican Restaurant", "website": "http://jerkspotla.com/index.html", "description": null }, "geometry": { "type": "Point", "coordinates": [ -118.3909683, 34.02758954 ] } },
{ "type": "Feature", "properties": { "name": "The Juice", "website": "https://thejuicela.com/", "description": null }, "geometry": { "type": "Point", "coordinates": [ -118.26229, 34.11717 ] } },
{ "type": "Feature", "properties": { "name": "The Kobbler King", "website": "http://thekobblerking.com/", "description": null }, "geometry": { "type": "Point", "coordinates": [ -118.3361849, 34.0254351 ] } },
{ "type": "Feature", "properties": { "name": "The Memphis Grill", "website": "https://www.thememphisgrill.com/", "description": null }, "geometry": { "type": "Point", "coordinates": [ -118.38136, 34.17543 ] } },
{ "type": "Feature", "properties": { "name": "The Original Coley’s", "website": "https://www.yelp.com/biz/the-original-coley", "description": null }, "geometry": { "type": "Point", "coordinates": [ -118.4226181, 34.20199526 ] } },
{ "type": "Feature", "properties": { "name": "The Real Cake Baker", "website": "https://www.therealcakebakery.com/", "description": null }, "geometry": { "type": "Point", "coordinates": [ -118.28978, 33.96137 ] } },
{ "type": "Feature", "properties": { "name": "The Reverse Orangutan", "website": "https://www.thereverseorangutan.com/coffee/", "description": null }, "geometry": { "type": "Point", "coordinates": [ -117.858868, 34.12841 ] } },
{ "type": "Feature", "properties": { "name": "The Sammiche Shoppe", "website": "https://www.sammicheshoppe.com/", "description": null }, "geometry": { "type": "Point", "coordinates": [ -118.3529886, 33.9642951 ] } },
{ "type": "Feature", "properties": { "name": "The Serving Spoon", "website": "https://theservingspoon.net/", "description": "The Serving Spoon, 1403 Centinela Ave., Inglewood, (310) 412-3927," }, "geometry": { "type": "Point", "coordinates": [ -118.3634377, 33.97628555 ] } },
{ "type": "Feature", "properties": { "name": "SnoBall Shop", "website": "http://www.snoballshop.com/", "description": null }, "geometry": { "type": "Point", "coordinates": [ -118.3537903, 33.98864746 ] } },
{ "type": "Feature", "properties": { "name": "Soul Food Shack", "website": "https://soulfoodshackgarde.wixsite.com", "description": null }, "geometry": { "type": "Point", "coordinates": [ -118.30865, 33.916522 ] } },
{ "type": "Feature", "properties": { "name": "Vtree at Yamashiro", "website": "https://www.thevtreehollywood.com/", "description": null }, "geometry": { "type": "Point", "coordinates": [ -118.342158, 34.105866 ] } },
{ "type": "Feature", "properties": { "name": "The Wood Urban Kitchen & Sports Lounge", "website": "https://www.yelp.com/biz/the-wood-urban-kitchen", "description": null }, "geometry": { "type": "Point", "coordinates": [ -118.352275, 33.96362 ] } },
{ "type": "Feature", "properties": { "name": "TIME 2 GRUB", "website": "https://www.yelp.com/biz/time-2-grub-lancaster-4", "description": null }, "geometry": { "type": "Point", "coordinates": [ -118.151238, 34.67165794 ] } },
{ "type": "Feature", "properties": { "name": "Tisket A Tasket Catering & Food Services", "website": "https://tisketatasketcatering.com/", "description": null }, "geometry": { "type": "Point", "coordinates": [ -118.3414326, 33.9888251 ] } },
{ "type": "Feature", "properties": { "name": "Totos' African Cuisine", "website": "https://www.yelp.com/biz/totos-african-cuisine", "description": null }, "geometry": { "type": "Point", "coordinates": [ -118.46801, 34.20177 ] } },
{ "type": "Feature", "properties": { "name": "Tracey's Belizean Restaurant", "website": "https://www.yelp.com/biz/traceys-belizean", "description": null }, "geometry": { "type": "Point", "coordinates": [ -118.308632, 34.0169944 ] } },
{ "type": "Feature", "properties": { "name": "Treme Kitchen", "website": "https://www.tremekitchen.com/", "description": null }, "geometry": { "type": "Point", "coordinates": [ -118.330452, 34.00838089 ] } },
{ "type": "Feature", "properties": { "name": "Trencher", "website": "http://trencherla.com", "description": null }, "geometry": { "type": "Point", "coordinates": [ -118.2541, 34.07594168 ] } },
{ "type": "Feature", "properties": { "name": "Twins Smoke House BBQ", "website": "http://www.twinssmokehouse.com/", "description": null }, "geometry": { "type": "Point", "coordinates": [ -118.2137501, 33.8045249 ] } },
{ "type": "Feature", "properties": { "name": "UEDF Fish & Chips", "website": "https://www.facebook.com/UEDF-FISH-Chips", "description": null }, "geometry": { "type": "Point", "coordinates": [ -118.1317825, 34.1834564 ] } },
{ "type": "Feature", "properties": { "name": "Uncle Andre's BBQ", "website": "https://www.yelp.com/biz/uncle-andres-bbq", "description": null }, "geometry": { "type": "Point", "coordinates": [ -118.388265, 34.150678 ] } },
{ "type": "Feature", "properties": { "name": "Undergrind Cafe", "website": "http://www.undergrindcafe.com/", "description": "Undergrind has a variety of flavored lattes, coffee drinks and breakfast foods. Open for takeout and delivery. 2713 S Robertson Blvd., Beverlywood," }, "geometry": { "type": "Point", "coordinates": [ -118.38892, 34.03734 ] } },
{ "type": "Feature", "properties": { "name": "Union", "website": "https://store.unionlosangeles.com/", "description": "Avant garde meets streetwear at Chris Gibbs’ and Beth Birkett’s boutique in the “guy’s gulch” stretch of La Brea Avenue. 110 S. La Brea Ave., Los Angeles, (323) 549-6950, store.unionlosangeles.com" }, "geometry": { "type": "Point", "coordinates": [ -118.1496096, 34.146963 ] } },
{ "type": "Feature", "properties": { "name": "VanillaBlack", "website": null, "description": "Vanessa Butler’s small coffee shop in Echo Park has a variety of coffee drinks including a “vanilla bomb” and vegan food options. 1825 Sunset Blvd., Echo Park." }, "geometry": { "type": "Point", "coordinates": [ -118.2599956, 34.07808787 ] } },
{ "type": "Feature", "properties": { "name": "Veronica's Kitchen", "website": "https://www.facebook.com/pages/category/African-Restaurant/Veronicas-Kitchen-115691395180607/", "description": "Veronica’s Kitchen, 401 E. Hillcrest Blvd., Inglewood, (310) 673-4890," }, "geometry": { "type": "Point", "coordinates": [ -118.34977, 33.9612 ] } },
{ "type": "Feature", "properties": { "name": "Voodoo Vegan", "website": "https://www.yelp.com/biz/voodoo-vegan", "description": null }, "geometry": { "type": "Point", "coordinates": [ -118.3103256, 33.94351959 ] } },
{ "type": "Feature", "properties": { "name": "Vurger Guyz", "website": "https://www.vurgerguyz.com/", "description": null }, "geometry": { "type": "Point", "coordinates": [ -118.26351, 34.05289 ] } },
{ "type": "Feature", "properties": { "name": "Watts Burgers", "website": null, "description": "Watts Burgers, 10203 S. Central Ave., Watts, (323) 749-0556" }, "geometry": { "type": "Point", "coordinates": [ -118.2542783, 33.94401477 ] } },
{ "type": "Feature", "properties": { "name": "Watts Coffee House", "website": "https://www.facebook.com/wherewe", "description": null }, "geometry": { "type": "Point", "coordinates": [ -118.239854, 33.943472 ] } },
{ "type": "Feature", "properties": { "name": "We Cupcake", "website": "http://www.wecupcake.net/", "description": "WeCupcake, 10807 Crenshaw Blvd., Inglewood, (424) 261-3080" }, "geometry": { "type": "Point", "coordinates": [ -118.326754, 33.9374182 ] } },
{ "type": "Feature", "properties": { "name": "Who's Hungry Caribbean Restaurant", "website": "https://www.whoshungrycatering.com/", "description": null }, "geometry": { "type": "Point", "coordinates": [ -118.335351, 34.027839 ] } },
{ "type": "Feature", "properties": { "name": "Wi Jammin Caribbean Cafe", "website": "https://www.wijammincafe.com/", "description": null }, "geometry": { "type": "Point", "coordinates": [ -118.3493823, 34.04838749 ] } },
{ "type": "Feature", "properties": { "name": "Wilson's BBQ Rib Shack", "website": "https://www.wilsonsbbqribshack.com/", "description": null }, "geometry": { "type": "Point", "coordinates": [ -118.11753, 34.10375 ] } },
{ "type": "Feature", "properties": { "name": "Wingopolis", "website": null, "description": "Wingopolis, 740 Centinela Ave., #103, Inglewood, (310) 910-0291" }, "geometry": { "type": "Point", "coordinates": [ -118.35206, 33.97566 ] } },
{ "type": "Feature", "properties": { "name": "Wings & Pot", "website": "https://www.yelp.com/biz/wings-and-pot", "description": null }, "geometry": { "type": "Point", "coordinates": [ -118.31648, 33.95968 ] } },
{ "type": "Feature", "properties": { "name": "Wood Spoon", "website": "https://www.instagram.com/vanillablackla/", "description": "Woodspoon, 107 W. 9th St., Los Angeles, (213) 629-1765," }, "geometry": { "type": "Point", "coordinates": [ -118.2551352, 34.04191749 ] } },
{ "type": "Feature", "properties": { "name": "Woody's Bar-B-Que", "website": "http://www.woodysbarbquela.com/", "description": "Woody’s BBQ, 475 S. Market St., Inglewood, (310) 672-4200," }, "geometry": { "type": "Point", "coordinates": [ -118.3326876, 33.98880643 ] } },
{ "type": "Feature", "properties": { "name": "Worldwide Tacos", "website": "http://worldwidetacos.com/", "description": null }, "geometry": { "type": "Point", "coordinates": [ -118.3198899, 34.0109334 ] } },
{ "type": "Feature", "properties": { "name": "Wowo's Smokin' Hot BBQ", "website": "https://www.wowosbbq.com/", "description": null }, "geometry": { "type": "Point", "coordinates": [ -118.03652, 33.96495 ] } },
{ "type": "Feature", "properties": { "name": "Yo-Way Eatery", "website": "https://yowayeatery.com/", "description": "Yo Way Deli, 17901 Vermont Ave., Gardena, (424) 228-1101," }, "geometry": { "type": "Point", "coordinates": [ -118.2911208, 33.8678648 ] } },
{ "type": "Feature", "properties": { "name": "Yordanos Ethiopian Restaurant", "website": "https://www.yelp.com/biz/yordanos", "description": null }, "geometry": { "type": "Point", "coordinates": [ -118.3433355, 34.01550683 ] } },
{ "type": "Feature", "properties": { "name": "Your Bakery 1st", "website": "https://www.yourbakery1st.com/", "description": null }, "geometry": { "type": "Point", "coordinates": [ -118.3353349, 33.9798801 ] } }
]
}
